business_id,name,city,latitude,longitude,review_count,stars,Restaurants,Shopping,Beauty & Spas,Nightlife,Bars,Active Life,Fashion,Coffee & Tea,Arts & Entertainment,Hotels & Travel,int_b_id,latent_1
rQX6RVr6E4Zg9hx8GBFGHQ,TGI Friday's,Champaign,40.097136,-88.245695,15,3.0,1.0,0.0,0.0,0.0,0.0,0.0,0.0,0.0,0.0,0.0,0,1.816661791428629
iLxG2Oo8HNSZFvJvba4W6g,El Toro Mexican Restaurant,Champaign,40.1070836,-88.2438972,82,3.0,1.0,0.0,0.0,0.0,0.0,0.0,0.0,0.0,0.0,0.0,1,1.905022735840923
-zEpEmDfFQL-ph0N3BDlXA,Sakanaya Restaurant,Champaign,40.110113,-88.23321800000001,242,4.5,1.0,0.0,0.0,0.0,0.0,0.0,0.0,0.0,0.0,0.0,2,2.653335242958884
D6SCh4BwNb52wZIqXdS4JQ,Esquire Lounge,Champaign,40.116597,-88.242292,98,4.0,1.0,0.0,0.0,1.0,1.0,0.0,0.0,0.0,0.0,0.0,3,2.2325086361402926
rP-MueqMyZbiDbOEUELXtQ,Snow Meets Coffee,Champaign,40.118413000000004,-88.24309140000001,59,4.5,0.0,0.0,0.0,0.0,0.0,0.0,0.0,1.0,0.0,0.0,4,2.543354060182862
2YnUIGGmhoJX4Cd61nQLkg,Za's Italian Cafe,Champaign,40.1399247,-88.2458532,29,3.0,1.0,0.0,0.0,0.0,0.0,0.0,0.0,0.0,0.0,0.0,5,1.6821719056895037
t952QLgrh-5l1woJ4IFgUA,Vinny's East Coast Pizzeria,Champaign,40.0977984,-88.2484631,56,3.5,1.0,0.0,0.0,0.0,0.0,0.0,0.0,0.0,0.0,0.0,6,2.2248038546831483
xWGn7oqLOZu_00H8pZOtsQ,Cracked the Egg Came First,Champaign,40.10592329999999,-88.2120315,51,4.5,1.0,0.0,0.0,0.0,0.0,0.0,0.0,1.0,0.0,0.0,7,2.8158753132084544
ImSA-iQAAV_mHd32y4VIVA,The Brown Bag Deli Restaurant,Champaign,40.025666799999996,-88.5732515,28,4.5,1.0,0.0,0.0,0.0,0.0,0.0,0.0,0.0,0.0,0.0,8,2.654896042139728
Epr8Ft7LwYAzotFwxQX6uw,Latea Bubble Tea Lounge,Champaign,40.1114942,-88.2304307,37,4.0,1.0,0.0,0.0,0.0,0.0,0.0,0.0,0.0,0.0,0.0,9,2.4566586375108224
RYClIlSwSPpaptR8tOF0AQ,Lacy's,Champaign,40.1123076506,-88.20831052959998,28,3.0,1.0,0.0,0.0,0.0,0.0,0.0,0.0,0.0,0.0,0.0,10,1.8694220229998944
gEJZ5USuvC1r8_QvSvDCNA,K-Bowl,Champaign,40.109988,-88.24050600000001,48,3.5,1.0,0.0,0.0,0.0,0.0,0.0,0.0,0.0,0.0,0.0,11,2.305243199816944
6o6XxnI8RWhnAVSdxqCJWQ,Jet's Pizza,Champaign,40.110597799999994,-88.24288840000001,42,4.0,1.0,0.0,0.0,0.0,0.0,0.0,0.0,0.0,0.0,0.0,12,2.3904506353136146
7m8MoWuudrxU98fEw7iBIw,Sairam Om,Champaign,40.081896,-88.295835,17,4.0,1.0,0.0,0.0,0.0,0.0,0.0,0.0,0.0,0.0,0.0,13,2.7295789266576747
1DedueD53YsKcpqMWPIe9w,Cabo's Cantina and Grill,Champaign,40.083446,-88.297332,23,3.5,1.0,0.0,0.0,1.0,1.0,0.0,0.0,0.0,0.0,0.0,14,2.084847339813812
vAUDxhbsWZKI8NJlsYwCMA,Flat Top Grill,Champaign,40.111425700000005,-88.2304288,84,3.0,1.0,0.0,0.0,0.0,0.0,0.0,0.0,0.0,0.0,0.0,15,1.879750489129193
pCer-vIZM05p423MFmiSng,Kofusion,Champaign,40.106822678,-88.2217281018,35,3.5,1.0,0.0,0.0,0.0,0.0,0.0,0.0,0.0,0.0,0.0,16,2.242198760191349
gaR5jDvZsOC0RQeY-W1eqQ,Mas Amigos,Champaign,40.1127011,-88.24072790000001,59,4.0,1.0,0.0,0.0,0.0,0.0,0.0,0.0,0.0,0.0,0.0,17,2.6707288283380413
6GJ9K4HadzMBZG4WY_P9bw,Smoke 'Que & Brew,Champaign,40.083446,-88.297332,23,3.5,1.0,0.0,0.0,0.0,0.0,0.0,0.0,0.0,0.0,0.0,18,2.3788131501412737
pjO0ZRGpCwlaOzipZDa3HA,Sam's Club,Champaign,40.138863,-88.2637177,21,3.0,0.0,1.0,0.0,0.0,0.0,0.0,1.0,0.0,0.0,0.0,19,2.1825602103882145
EoPd4SI9-mnkyb2CJcgkLA,Minneci's Ristorante,Champaign,40.112801,-88.239078,35,3.5,1.0,0.0,0.0,0.0,0.0,0.0,0.0,0.0,0.0,0.0,20,1.9564455349550682
5jXwI9WpDxGDmzmkmE0RTg,Oishi,Champaign,40.145176899999996,-88.258404,88,3.0,1.0,0.0,0.0,0.0,0.0,0.0,0.0,0.0,0.0,0.0,21,1.9975238707798353
-865Ps6xb3h1LP67JcQ3mA,Rainbow Garden,Champaign,40.1167919,-88.205811,30,3.0,1.0,0.0,0.0,0.0,0.0,0.0,0.0,0.0,0.0,0.0,22,1.877457394099268
aLdMqYoHqc77JjOybdPX-A,JT Walker's Restaurant & Brewery,Champaign,40.194982,-88.4039932,62,4.0,1.0,0.0,0.0,1.0,1.0,0.0,0.0,0.0,0.0,0.0,23,2.204138362617118
Gvox18F9QxsSS9qG2O8E-A,Sam's Cafe,Champaign,40.116985299999996,-88.2427068,84,4.0,1.0,0.0,0.0,0.0,0.0,0.0,0.0,0.0,0.0,0.0,24,2.383491280018127
9SJ5sTileHeLXVMJrQiEDQ,That's Rentertainment,Champaign,40.1092217,-88.2305203,49,5.0,0.0,1.0,0.0,0.0,0.0,0.0,0.0,0.0,0.0,0.0,25,2.9558791413067445
Ih9my8hp4KqcyBXI9Cyevg,Barrelhouse 34,Champaign,40.117537,-88.241975,36,3.5,0.0,0.0,0.0,1.0,1.0,0.0,0.0,0.0,0.0,0.0,26,2.1277006882755853
eY8afQl17K4N2bf3z6nkCQ,HomeTown Buffet,Champaign,40.144166,-88.257164,21,2.0,1.0,0.0,0.0,0.0,0.0,0.0,0.0,0.0,0.0,0.0,27,1.5603849793498763
e0prCZXtHGQIKeQ_wTW3uw,Cafe Kopi,Champaign,40.116825,-88.242716,141,4.0,0.0,0.0,0.0,0.0,0.0,0.0,0.0,1.0,0.0,0.0,28,2.5032591656150887
ZGIkQIh3KTLM1yOCNpvU5Q,Steak 'n Shake,Champaign,40.140462,-88.257297,34,2.0,1.0,0.0,0.0,0.0,0.0,0.0,0.0,0.0,0.0,0.0,29,1.7447612901689438
rwuMWGqt7L5l5lDsOYv1dw,Zyggyz,Champaign,40.110554,-88.232373,26,3.5,1.0,0.0,0.0,0.0,0.0,0.0,0.0,0.0,0.0,0.0,30,2.344123706940913
epvLkQNL6MOvk3s6JlTntA,Carmon's Restaurant,Champaign,40.119807,-88.2438559,45,3.5,1.0,0.0,0.0,0.0,0.0,0.0,0.0,0.0,0.0,0.0,31,2.1760514083944766
8sCEkyczBsOEqizt3mfXyg,Clybourne,Champaign,40.1096989,-88.2303608,26,3.0,0.0,0.0,0.0,1.0,1.0,0.0,0.0,0.0,0.0,0.0,32,1.7330833961574441
HgwOtz8ObpFkzfNbtewwWw,Carmike Beverly Cinema 18,Champaign,40.147665,-88.25957,31,2.5,0.0,0.0,0.0,0.0,0.0,0.0,0.0,0.0,1.0,0.0,33,1.602132365135102
wsuzuLD3KV7L8oMinLCI0A,Merry-Ann's Diner,Champaign,40.0984525132,-88.2442462116,58,3.0,1.0,0.0,0.0,0.0,0.0,0.0,0.0,0.0,0.0,0.0,34,1.9244285264032972
XuByFsXXhnKmZ6hxucOj7A,301 Mongolia,Champaign,40.118742,-88.24436259999999,57,3.5,1.0,0.0,0.0,0.0,0.0,0.0,0.0,0.0,0.0,0.0,35,1.9827293470505756
kNtToQSP_Y5U8tznLXuCaw,Farren's Pub & Eatery,Champaign,40.1183497,-88.2451587,212,4.0,1.0,0.0,0.0,1.0,1.0,0.0,0.0,0.0,0.0,0.0,36,2.58936360516085
bVt5eOVdpZzg83qlW9Rl2g,Monical's Pizza,Champaign,40.097774,-88.24573000000001,24,3.5,1.0,0.0,0.0,0.0,0.0,0.0,0.0,0.0,0.0,0.0,37,1.9136325608523865
ATEOnDYQCYSwCCH6hxenlQ,County Market,Champaign,40.0966122,-88.2939348,18,3.5,0.0,1.0,0.0,0.0,0.0,0.0,0.0,0.0,0.0,0.0,38,2.4014998675289876
boIILzBqhjWhq4G0BsB5_A,Miga,Champaign,40.1183926387,-88.2439332381,96,4.0,1.0,0.0,0.0,1.0,1.0,0.0,0.0,0.0,0.0,0.0,39,2.642110327801857
y2V42mxWvVoH4NvUT_n8eg,Red Robin Gourmet Burgers,Champaign,40.1399766,-88.2447441,33,3.0,1.0,0.0,0.0,0.0,0.0,0.0,0.0,0.0,0.0,0.0,40,2.011855936441149
YxngrHRkW8gLGOYDJ_LBoQ,Furniture Lounge,Champaign,40.116164000000005,-88.24295500000001,13,4.5,0.0,1.0,0.0,0.0,0.0,0.0,1.0,0.0,0.0,0.0,41,2.796188322326552
-Jhlh8Scjy669NdtCfKSSg,V Picasso,Champaign,40.117237,-88.24319190000001,74,3.5,1.0,0.0,0.0,1.0,1.0,0.0,0.0,0.0,0.0,0.0,42,2.408010942186655
lWmDrnqgU6w3gFaJyn_1Uw,Radio Maria,Champaign,40.117125099999996,-88.24266870000001,261,3.5,1.0,0.0,0.0,0.0,0.0,0.0,0.0,0.0,0.0,0.0,43,2.203467722436525
gw26vlrE_vd15ji8mih3bw,Jane Addams Book Shop,Champaign,40.117638,-88.24325390000001,22,4.5,0.0,1.0,0.0,0.0,0.0,0.0,0.0,0.0,0.0,0.0,44,2.843830624909752
zp3rZNu-5qonTL3ByPYOUg,Fat Sandwich Company,Champaign,40.1092381,-88.2315641,76,3.5,1.0,0.0,0.0,0.0,0.0,0.0,0.0,0.0,0.0,0.0,45,1.8492289175364898
PTQVaWA-I5ZLzwy5oBbVMg,Pekara Bakery and Bistro,Champaign,40.1170088,-88.24324820000001,125,3.5,1.0,0.0,0.0,0.0,0.0,0.0,0.0,0.0,0.0,0.0,46,2.110871699140143
w5Y_FiGPSlPemJVxAZZToQ,Basil Thai Urbana,Champaign,40.1065482,-88.2217353,82,3.0,1.0,0.0,0.0,0.0,0.0,0.0,0.0,0.0,0.0,0.0,47,1.9022097287022832
O4-tpRbaMfrdx_okiVAbaw,Manzellas Italian Restaurant,Champaign,40.1128,-88.271074,26,3.0,1.0,0.0,0.0,0.0,0.0,0.0,0.0,0.0,0.0,0.0,48,1.9699120927789737
miMx3VNOW8qPJC5wEGaIOw,Xinh Xinh Cafe,Champaign,40.1133903895,-88.2027876406,159,4.0,1.0,0.0,0.0,0.0,0.0,0.0,0.0,0.0,0.0,0.0,49,2.2719798904118007
A_eABcl0LTts73RNo2Np2Q,Krannert Center,Champaign,40.108013,-88.222747,27,5.0,1.0,0.0,0.0,0.0,0.0,0.0,0.0,0.0,1.0,0.0,50,2.7392663609388643
UUsS7SrTQQ2AvvpslfrvFA,Legends,Champaign,40.110557899999996,-88.2311675,69,3.5,1.0,0.0,0.0,1.0,1.0,0.0,0.0,0.0,0.0,0.0,51,2.0504678035020416
4hWDMVtfnpyY72_5QMbthA,Old Time Meat & Deli Shoppe,Champaign,40.091899,-88.24528070000001,41,5.0,1.0,0.0,0.0,0.0,0.0,0.0,0.0,0.0,0.0,0.0,52,2.9148687768362556
th4pZ5LkoIIkb1Vmu_m2DA,Meatheads,Champaign,40.101521999999996,-88.24448000000001,122,4.0,1.0,0.0,0.0,0.0,0.0,0.0,0.0,0.0,0.0,0.0,53,2.23147555905031
IHJKFxoWXONoz-JamfOnlg,Meijer,Champaign,40.0860394,-88.1873157,20,3.0,0.0,1.0,0.0,0.0,0.0,0.0,1.0,0.0,0.0,0.0,54,1.7600070637551444
LW21U6m6axC2lCLYc0fFSA,Cream & Flutter,Champaign,40.116820000000004,-88.242122,155,3.5,0.0,0.0,0.0,0.0,0.0,0.0,0.0,1.0,0.0,0.0,55,2.182525315715654
uGxZdLLgMQDvFSqiXyCg_w,Ambar India,Champaign,40.1113654,-88.22890699999999,48,3.5,1.0,0.0,0.0,0.0,0.0,0.0,0.0,0.0,0.0,0.0,56,2.4219761942082947
u02xse4VO7lkyF4r7ARNdw,Suburban Express,Champaign,40.116610200000004,-88.24125040000001,50,2.0,0.0,0.0,0.0,0.0,0.0,0.0,0.0,0.0,0.0,1.0,57,1.3769158163697799
u4D2VypIx3nMsRRbOwx-sA,Bentley's Pub,Champaign,40.119931,-88.24387800000001,17,4.0,0.0,0.0,0.0,1.0,1.0,0.0,0.0,0.0,0.0,0.0,58,2.7671309590693762
gOMc2QcDaMIOkIVTShqoYA,Firehouse Subs,Champaign,40.136804999999995,-88.257355,18,3.5,1.0,0.0,0.0,0.0,0.0,0.0,0.0,0.0,0.0,0.0,59,2.339278585125032
VuMgSpUJ9ONgSkddjM4JqQ,Yori Q Korean Grill & Bar,Champaign,40.1076966669,-88.2436596975,40,3.5,1.0,0.0,0.0,1.0,1.0,0.0,0.0,0.0,0.0,0.0,60,2.357567637401129
68HNLNwMfXu1NuL_2E4N7A,Doodles,Champaign,40.10933,-88.231668,34,4.0,1.0,0.0,0.0,0.0,0.0,0.0,0.0,0.0,0.0,0.0,61,2.6192707008235705
Hw0hdZnM7z5uBTwbW8jHMA,Penn Station,Champaign,40.1432914,-88.2591227,17,3.5,1.0,0.0,0.0,0.0,0.0,0.0,0.0,0.0,0.0,0.0,62,2.165687966232281
a3hjBPsnpcTpcquQXLeS0w,Dragon Fire Pizza,Champaign,40.116420399999996,-88.2433829,25,4.5,1.0,0.0,0.0,0.0,0.0,0.0,0.0,0.0,0.0,0.0,63,2.7173818517786414
uGwwPkw2AEvKkVHiSufhzQ,Jim Gould,Champaign,40.1182231,-88.2435515,45,3.5,1.0,0.0,0.0,0.0,0.0,0.0,0.0,0.0,0.0,0.0,64,2.104738479688942
sYf2auhosrx8trbyP9nGyw,DP Dough,Champaign,40.1099064,-88.2407666,45,3.0,1.0,0.0,0.0,0.0,0.0,0.0,0.0,0.0,0.0,0.0,65,1.711996971384512
aqTdhZDTSjA42_Uh2E6V7A,Taco Loco,Champaign,40.142194700000005,-88.2516073,29,3.5,1.0,0.0,0.0,0.0,0.0,0.0,0.0,0.0,0.0,0.0,66,2.3016666045467358
GkQxwsRXYioD2VtCjNfedw,The Beef Stand,Champaign,40.110039,-88.229804,23,3.5,1.0,0.0,0.0,0.0,0.0,0.0,0.0,0.0,0.0,0.0,67,2.4294418717898916
PGUuVJEzM0H-ZMB6m1D6Ig,Boltini Lounge,Champaign,40.117733,-88.243876,75,4.0,1.0,0.0,0.0,1.0,1.0,0.0,0.0,0.0,0.0,0.0,68,2.3848649130970165
7siEeRGqAJ730IkwAtcWAQ,Jerusalem Middle Eastern Cuisine,Champaign,40.1113,-88.229192,44,3.5,1.0,0.0,0.0,0.0,0.0,0.0,0.0,0.0,0.0,0.0,69,1.9901606045566258
aKiE0aZ6vGyOlH-uVOHONw,The Y Eatery,Champaign,40.1065381,-88.22929,28,4.0,1.0,0.0,0.0,0.0,0.0,0.0,0.0,0.0,0.0,0.0,70,2.1588253525650343
AtLv64FV-Pw6JuT3XUKU1g,Gumby's Pizza,Champaign,40.0995845,-88.2443792,41,3.5,1.0,0.0,0.0,0.0,0.0,0.0,0.0,0.0,0.0,0.0,71,2.008150997629919
GWS5s8HSm1zjqMLJD7wQLg,Woori Jib Restaurant,Champaign,40.109590000000004,-88.230064,72,3.5,1.0,0.0,0.0,0.0,0.0,0.0,0.0,0.0,0.0,0.0,72,2.0936563727076756
SCxtzXcvyk1hygdmOZqd1A,Mashawi Grill,Champaign,40.110040999999995,-88.22968890000001,77,4.5,1.0,0.0,0.0,0.0,0.0,0.0,0.0,0.0,0.0,0.0,73,2.7549318814860464
o9nGD3J0btXjE9M6IdgZTA,McAlister's Deli,Champaign,40.14166846,-88.25036014370001,38,3.0,1.0,0.0,0.0,0.0,0.0,0.0,0.0,0.0,0.0,0.0,74,1.8627851632191768
SuQpsHxcxCAB8kxPEIXiBg,Wonderdogs,Champaign,40.1113062,-88.2289026,17,4.0,1.0,0.0,0.0,0.0,0.0,0.0,0.0,0.0,0.0,0.0,75,2.372345833038141
t0HT9od2xZ0Fc5a0PFB2BQ,Kam's,Champaign,40.1079898,-88.2295058,50,2.0,1.0,0.0,0.0,1.0,1.0,0.0,0.0,0.0,0.0,0.0,76,1.0684835352743092
8GUMO244E8CxfJcyJIWFOA,El Charro,Champaign,40.1100704,-88.2395746,50,3.5,1.0,0.0,0.0,0.0,0.0,0.0,0.0,0.0,0.0,0.0,77,2.484390174311887
e9shtyZ7-9GYcbPIVV--XQ,Escobar's Restaurant,Champaign,40.1212439,-88.2428344,146,4.0,1.0,0.0,0.0,0.0,0.0,0.0,0.0,0.0,0.0,0.0,78,2.4757840631382537
Ell98LV4Yuc0DqZwGE8gWQ,Monical's Pizza,Champaign,40.0833818,-88.19051850000001,26,3.0,1.0,0.0,0.0,0.0,0.0,0.0,0.0,0.0,0.0,0.0,79,1.7083810633711094
CDm96_A5GagulRKa5zadfQ,Brothers Bar & Grill,Champaign,40.110082299999995,-88.2296913,28,3.0,0.0,0.0,0.0,1.0,1.0,0.0,0.0,0.0,0.0,0.0,80,1.7354241443903489
SUktrYdNQD8k2vvkM4OpfA,Peking Garden Restaurant,Champaign,40.117849299999996,-88.2450179,53,4.0,1.0,0.0,0.0,0.0,0.0,0.0,0.0,0.0,0.0,0.0,81,2.409354118468976
Ez1U0wMD7Wws2BPAYfW3yQ,Luna,Champaign,40.116715,-88.240606,64,3.5,1.0,0.0,0.0,0.0,0.0,0.0,0.0,0.0,0.0,0.0,82,2.109258140091594
BoTQepQTjGbTXA4g4Hj-WA,Antonio's Pizza,Champaign,40.1100646,-88.22960920000001,76,4.0,1.0,0.0,0.0,0.0,0.0,0.0,0.0,0.0,0.0,0.0,83,2.2830460053457022
_n5wggIEfBzCUepjgvHXAQ,Sushi Ichiban,Champaign,40.110868100000005,-88.22830440000001,40,3.0,1.0,0.0,0.0,0.0,0.0,0.0,0.0,0.0,0.0,0.0,84,2.0041644167961836
m3qsb7Xf9Pivg9GAvx-gog,Kamakura Japanese Restaurant,Champaign,40.107869,-88.2435628,56,3.0,1.0,0.0,0.0,0.0,0.0,0.0,0.0,0.0,0.0,0.0,85,1.702095909246405
tZT_0yAeFxuihVnGXoCbWQ,The Blind Pig Company,Champaign,40.11698563,-88.242283532,169,4.0,0.0,0.0,0.0,1.0,1.0,0.0,0.0,0.0,0.0,0.0,86,2.5724253702638955
_TWp4gqGF7tQUGloTClcNg,Brixx Wood Fired Pizza,Champaign,40.09030070000001,-88.2458718,57,3.0,1.0,0.0,0.0,1.0,1.0,0.0,0.0,0.0,0.0,0.0,87,2.0108287205347835
zTGxLMOd9crAz0XNzqrcrA,Empire Chinese Restaurant,Champaign,40.110554,-88.232373,42,3.5,1.0,0.0,0.0,0.0,0.0,0.0,0.0,0.0,0.0,0.0,88,2.1732185655674163
jK8PNNtv4RI6m-xd-tGjPQ,Firehaus,Champaign,40.109693799999995,-88.2303603,70,3.5,1.0,0.0,0.0,1.0,1.0,0.0,0.0,0.0,0.0,0.0,89,1.9040701335089047
r_QcMIgY2zxdcV40kK_rxw,Applebee's,Champaign,40.1421036,-88.2585732,25,2.0,1.0,0.0,0.0,1.0,1.0,0.0,0.0,0.0,0.0,0.0,90,1.2095308769175253
5_cn7M-9swHrFbnqZtYGBQ,Bangkok Thai and Pho 911,Champaign,40.1105683,-88.2325823,136,4.0,1.0,0.0,0.0,0.0,0.0,0.0,0.0,0.0,0.0,0.0,91,2.631020476884041
zUayeEQ3_1fM_71X_1PdGQ,Let's Take a Seat: Thai Cuisine,Champaign,40.08182670000001,-88.2963454,27,3.5,1.0,0.0,0.0,0.0,0.0,0.0,0.0,0.0,0.0,0.0,92,2.363562338362069
bQ8ndy52Rcdv3uYvoJWQ_w,Seaboat,Champaign,40.0977581,-88.24879490000001,45,3.5,1.0,0.0,0.0,0.0,0.0,0.0,0.0,0.0,0.0,0.0,93,2.367701543205645
vqEtZ7CtNB9G8WMzjwJA2g,Wedge Tequila Bar & Grill,Champaign,40.119807,-88.2438559,98,3.0,1.0,0.0,0.0,1.0,1.0,0.0,0.0,0.0,0.0,0.0,94,2.012986059892513
FeXsYKhyJ7F8t0-kn5JldQ,Schnucks - Urbana,Champaign,40.113986499999996,-88.2029151,20,3.5,0.0,1.0,0.0,0.0,0.0,0.0,0.0,0.0,0.0,0.0,95,2.129451367361523
6ockUmdOBYBApEsUCJkBzA,El Oasis,Champaign,40.117278000000006,-88.203156,63,5.0,1.0,0.0,0.0,0.0,0.0,0.0,0.0,0.0,0.0,0.0,96,3.1151188455752576
C_Zj7H7bUJ5kGCwFmEwW6w,B Won,Champaign,40.09209439999999,-88.24529809999999,82,3.5,1.0,0.0,0.0,0.0,0.0,0.0,0.0,0.0,0.0,0.0,97,2.3673588260853853
pLBF8QrRkMicJcsjAqW7ag,Walnut Street Tea,Champaign,40.1154721496,-88.2432021594,23,4.5,0.0,0.0,0.0,0.0,0.0,0.0,0.0,1.0,0.0,0.0,98,2.340564809364105
Z2W3K8x9cRGXvlGWerZH-w,Big Mouth's,Champaign,40.11028889999999,-88.23247090000001,19,3.0,1.0,0.0,0.0,0.0,0.0,0.0,0.0,0.0,0.0,0.0,99,1.7965596099312693
jKxES7iLV63H_PfyGVGIDw,Lai Lai Wok,Champaign,40.1104755,-88.2333105,91,4.0,1.0,0.0,0.0,0.0,0.0,0.0,0.0,0.0,0.0,0.0,100,2.5657193957383195
FM-rxNJP7eSXZGwizEd-Dg,Dunkin' Donuts,Champaign,40.1104641,-88.2439326,16,3.0,1.0,0.0,0.0,0.0,0.0,0.0,0.0,1.0,0.0,0.0,101,2.0438830944058335
cDGaMsCAx8guR1IUrxLxWA,Pho Cafe,Champaign,40.110039,-88.229804,35,4.0,1.0,0.0,0.0,0.0,0.0,0.0,0.0,0.0,0.0,0.0,102,2.7152457505278873
X57f6FWZiwI1wOidPPhOrQ,Dos Reales,Champaign,40.1298862,-88.2584824,166,4.0,1.0,0.0,0.0,0.0,0.0,0.0,0.0,0.0,0.0,0.0,103,2.2227121776466423
z-kUTHzcJSRiTvhtCT4NIA,Market Place Shopping Center,Champaign,40.141728836,-88.2410270977,28,3.0,0.0,1.0,0.0,0.0,0.0,0.0,0.0,0.0,0.0,0.0,104,2.0949662909552664
abA0s0uxoeOn7zNm-1dDxw,Mia Za's Cafe,Champaign,40.1101105,-88.2292247,75,3.5,1.0,0.0,0.0,0.0,0.0,0.0,0.0,0.0,0.0,0.0,105,2.097674717346074
3frikpuC7Cw_C60TMtvVVg,Emerald City Lounge,Champaign,40.319182899999994,-88.346751,24,4.0,0.0,0.0,0.0,1.0,1.0,0.0,0.0,0.0,0.0,0.0,106,2.588722711317403
44pzzXXYBtbC0QxHFosagw,Perfect Arch Salon,Champaign,40.1135266294,-88.2459640503,49,4.5,0.0,0.0,1.0,0.0,0.0,0.0,0.0,0.0,0.0,0.0,107,2.7306972171049817
RofPcfgxItpYw1eQ3e1Hjw,Nitaya Thai Restaurant,Champaign,40.118534999999994,-88.244967,49,3.0,1.0,0.0,0.0,0.0,0.0,0.0,0.0,0.0,0.0,0.0,108,1.926040408148363
OyBStpjF5e_iRCMXflFasQ,Evo Cafe,Champaign,40.1094391,-88.2306035,44,2.5,1.0,0.0,0.0,0.0,0.0,0.0,0.0,0.0,0.0,0.0,109,1.7712269534759943
EYmj4QlhqgrsMXnLeGLu3Q,Curtis Orchard & Pumpkin Patch,Champaign,40.0634243532,-88.29501628879999,50,3.5,1.0,0.0,0.0,0.0,0.0,0.0,0.0,0.0,0.0,0.0,110,2.2676460550736754
mZJdFjxvVddqPN5RZdKSHg,Jurassic Grill,Champaign,40.1104696,-88.23311770000001,27,3.5,1.0,0.0,0.0,0.0,0.0,0.0,0.0,0.0,0.0,0.0,111,2.2809223377578767
6Ujvqa50oe8fgT5iDEx42Q,Menards,Champaign,40.144694,-88.25314300000001,13,4.0,0.0,1.0,0.0,0.0,0.0,0.0,0.0,0.0,0.0,0.0,112,2.3614783016440475
x792tXM8gIf6-nU2IiiAEQ,Five Guys Burgers & Fries,Champaign,40.1377293292,-88.2586995927,23,3.0,1.0,0.0,0.0,0.0,0.0,0.0,0.0,0.0,0.0,0.0,113,1.8418696927238851
PmVxbit6HDDsEUS-j9aDfg,Billy Barooz Bar & Grill,Champaign,40.081317,-88.29670420000001,62,3.5,1.0,0.0,0.0,1.0,1.0,0.0,0.0,0.0,0.0,0.0,114,2.1955083484916913
Y81wukOSmZ6sRS1cn1QhXA,The Wok - Chinese Express,Champaign,40.1957401,-88.39792440000001,25,4.5,1.0,0.0,0.0,0.0,0.0,0.0,0.0,0.0,0.0,0.0,115,2.8491188824705422
njngMI0mhAGJ-kH0oo68Ow,Home of Gourmet Chinese & Thai Restaurant,Champaign,40.108115999999995,-88.230005,40,3.5,1.0,0.0,0.0,0.0,0.0,0.0,0.0,0.0,0.0,0.0,116,1.9868878969896615
qeJnMI5RmyJ2TZvkqvjn6Q,Biaggi's Ristorante Italiano,Champaign,40.0865554,-88.24700179999999,157,3.5,1.0,0.0,0.0,0.0,0.0,0.0,0.0,0.0,0.0,0.0,117,2.23673436474232
o5Mofj5KJkYAMs_fhxftpg,Seoul Taco,Champaign,40.1114033,-88.23039109999999,38,3.5,1.0,0.0,0.0,0.0,0.0,0.0,0.0,0.0,0.0,0.0,118,2.162943235475724
kyXEnWKQGWSThY6EcjORuw,Zorba's Restaurant,Champaign,40.110085,-88.229304,93,4.0,1.0,0.0,0.0,0.0,0.0,0.0,0.0,0.0,0.0,0.0,119,2.295600563841298
iO86eCaZJBHqi1sZ1ELk6A,TGI Fridays,Champaign,40.1375274658,-88.24530029299999,44,3.0,1.0,0.0,0.0,1.0,1.0,0.0,0.0,0.0,0.0,0.0,120,2.2624162236047654
ZMcbVIEXsLO7j1Q1GXKPSw,A-Ri-Rang,Champaign,40.1111735243,-88.22904367,39,3.5,1.0,0.0,0.0,0.0,0.0,0.0,0.0,0.0,0.0,0.0,121,2.0710078779022703
RTmIbq33chUSa-etGiF8Lg,Bombay Indian Grill,Champaign,40.114132,-88.23836899999999,57,3.5,1.0,0.0,0.0,0.0,0.0,0.0,0.0,0.0,0.0,0.0,122,2.3158309093362495
OkD42cWX6WjgDeLFdWSgXA,Mike N Molly's,Champaign,40.1165811599,-88.2418391481,32,4.0,0.0,0.0,0.0,1.0,1.0,0.0,0.0,0.0,0.0,0.0,123,2.5381319521241243
ODURDhURWmZr6b--O4nt3w,Jupiter's Pizzeria and Billiards,Champaign,40.1177419112,-88.241513984,91,4.0,1.0,0.0,0.0,1.0,1.0,0.0,0.0,0.0,0.0,0.0,124,2.414858760407368
vsoEZauF4lrADIqCYXySFQ,Chopstix,Champaign,40.110524,-88.23669,51,3.0,1.0,0.0,0.0,0.0,0.0,0.0,0.0,0.0,0.0,0.0,125,1.949845730266881
7B-suS0RHxqxZBBfVfiPLA,Olive Garden Italian Restaurant,Champaign,40.1358519816,-88.24112795049999,47,3.0,1.0,0.0,0.0,1.0,1.0,0.0,0.0,0.0,0.0,0.0,126,1.8008393246996968
0FrYsoVHheQGoXEQsH2d2Q,Aroma Cafe,Champaign,40.117055799999996,-88.2432469,110,4.0,1.0,0.0,0.0,0.0,0.0,0.0,0.0,1.0,0.0,0.0,127,2.4981121191552424
0-WocGTpO3Zm4q1Zzz49Rw,Sushi Kame,Champaign,40.1185309,-88.2448027,120,3.5,1.0,0.0,0.0,0.0,0.0,0.0,0.0,0.0,0.0,0.0,128,2.3376097575126695
WAAYgXdq-1zdo5Je-pq3kg,Columbia Street Roastery By Herriott's,Champaign,40.121275,-88.242132,27,4.5,0.0,1.0,0.0,0.0,0.0,0.0,0.0,1.0,0.0,0.0,129,2.8646641088086233
3B74iILT_W1ptfQeW7pIYQ,Buffalo Wild Wings,Champaign,40.13781710000001,-88.260388,28,2.5,1.0,0.0,0.0,1.0,1.0,0.0,0.0,0.0,0.0,0.0,130,1.9878886965205074
uzpdcxvlKx5BuoWU3NRHbA,Minneci's at the Crossing,Champaign,40.081711927,-88.29638850709999,39,3.5,1.0,0.0,0.0,0.0,0.0,0.0,0.0,0.0,0.0,0.0,131,2.1007068267923414
-LfTBo0oa_uD454ScEW2XA,Merry-Ann's Diner,Champaign,40.1181331448,-88.242899908,42,3.0,1.0,0.0,0.0,0.0,0.0,0.0,0.0,0.0,0.0,0.0,132,2.0205144021357997
LElQBiDw8HyU_LrbjP8C1A,World Harvest Foods,Champaign,40.1159605,-88.23073769999999,54,4.0,1.0,0.0,0.0,0.0,0.0,0.0,0.0,0.0,0.0,0.0,133,2.620911388472853
E6QAh8UPRo6Tlg6hkcWCHw,Bombay Indian Grill,Champaign,40.110473999999996,-88.233544,80,3.5,1.0,0.0,0.0,0.0,0.0,0.0,0.0,0.0,0.0,0.0,134,2.199799536733961
_a6jhRFIgOe74U73T5B-Ww,Fiesta Cafe,Champaign,40.1147989,-88.2384807,53,3.5,1.0,0.0,0.0,0.0,0.0,0.0,0.0,0.0,0.0,0.0,135,2.481003539759407
uu5ApFAvmi7_mqXwxob2LA,Target,Champaign,40.141908,-88.2546292,22,3.0,0.0,1.0,0.0,0.0,0.0,0.0,1.0,0.0,0.0,0.0,136,1.8153414277813091
fY0Dpw5a3i1CMjMuT2SaDQ,Holy Land Mediterranean Grill,Champaign,40.1221403,-88.243543,27,3.5,1.0,0.0,0.0,0.0,0.0,0.0,0.0,0.0,0.0,0.0,137,2.219655422895441
WO2nNar_wIQ3fIAfF3MM1Q,Exile on Main Street,Champaign,40.116715,-88.240606,18,4.0,0.0,1.0,0.0,0.0,0.0,0.0,0.0,0.0,0.0,0.0,138,2.408746255756412
mklo4H47YWK7f18YXTCEoA,Murphy's Pub,Champaign,40.110379906599995,-88.2301879674,100,3.5,1.0,0.0,0.0,1.0,1.0,0.0,0.0,0.0,0.0,0.0,139,2.2635117972765624
wfO1xdAeJMb_miGDU19W-w,Carmon's Bistro,Champaign,40.119807,-88.2438559,17,3.5,1.0,0.0,0.0,0.0,0.0,0.0,0.0,0.0,0.0,0.0,140,2.191526392308573
-fiUXzkxRfbHY9TKWwuptw,Destihl Restaurant & Brew Works,Champaign,40.1183795242,-88.24370140100001,387,4.0,1.0,0.0,0.0,0.0,0.0,0.0,0.0,0.0,0.0,0.0,141,2.2692302516174836
L2c-qKZWumCmOCR-dqBLrg,Seven Saints,Champaign,40.1165558776,-88.2420127724,244,4.0,1.0,0.0,0.0,1.0,1.0,0.0,0.0,0.0,0.0,0.0,142,2.2697017538817557
OB9fA3C-7ppMH5mZFw71AQ,Champaign Surplus,Champaign,40.114015,-88.243971,22,4.0,0.0,1.0,0.0,0.0,0.0,0.0,1.0,0.0,0.0,0.0,143,2.453472164076827
CrIWqmuO2uQWwl3z11K_BA,Pizzeria Antica,Champaign,40.116869,-88.242964,74,4.0,1.0,0.0,0.0,0.0,0.0,0.0,0.0,0.0,0.0,0.0,144,2.158347292652793
S_9OaE_RBWBIXnUKvxJKsQ,Watson's Shack & Rail,Champaign,40.117733,-88.243876,83,4.0,1.0,0.0,0.0,1.0,1.0,0.0,0.0,0.0,0.0,0.0,145,2.344366060653208
nh1-ax9wPNCqskcJYIWogg,Buttitta's,Champaign,40.103246,-88.244236,16,3.0,1.0,0.0,0.0,0.0,0.0,0.0,0.0,0.0,0.0,0.0,146,1.9603366808499607
fZQ3QjGMRELHG9f0WnN8vw,The Habitat for Humanity ReStore,Champaign,40.1160509,-88.23776509999999,24,4.5,0.0,1.0,0.0,0.0,0.0,0.0,1.0,0.0,0.0,0.0,147,2.8218146614793986
nsSfCKW9KDB4COj9bzXApw,Red Lobster,Champaign,40.138424,-88.258634,42,3.0,1.0,0.0,0.0,0.0,0.0,0.0,0.0,0.0,0.0,0.0,148,1.9798670569918086
PBmfdx-tC2D54FI3HtcKww,The Ribeye,Champaign,40.096106,-88.24545529999999,56,3.0,1.0,0.0,0.0,0.0,0.0,0.0,0.0,0.0,0.0,0.0,149,2.1342377904348226
NEVA0IYbawceL6kz5v5DAw,Kofusion,Champaign,40.1185666238,-88.24323303860001,229,3.5,1.0,0.0,0.0,0.0,0.0,0.0,0.0,0.0,0.0,0.0,150,2.0752564555562
jeTfL2kCyBtmFGSrSQHqVw,Bacaro,Champaign,40.1169069806,-88.2426019246,142,4.0,1.0,0.0,0.0,1.0,1.0,0.0,0.0,0.0,0.0,0.0,151,2.44258216264684
pilPpu6CBnGCHPXHDnp5cg,University Of Illinois Arboretum,Champaign,40.098168,-88.21911390000001,17,4.5,0.0,0.0,0.0,0.0,0.0,1.0,0.0,0.0,0.0,0.0,152,2.9424268454028835
nG59soBP2SaQ25rf2n-0bA,Atlanta Bread,Champaign,40.0929439,-88.2459946,44,3.0,1.0,0.0,0.0,0.0,0.0,0.0,0.0,1.0,0.0,0.0,153,1.8493955723503386
lXH-2--dUls3FSPsnJFbPQ,Best Buy,Champaign,40.142386,-88.25787700000001,20,2.5,0.0,1.0,0.0,0.0,0.0,0.0,0.0,0.0,0.0,0.0,154,1.6696911616808239
MQ-xcuUXXBYvrXzy7BmOFw,Hooters,Champaign,40.1271729,-88.2468548,25,2.5,1.0,0.0,0.0,1.0,1.0,0.0,0.0,0.0,0.0,0.0,155,1.6073236168099994
yLKoESPQ8BN7dn6ADzZicQ,Casablanca Kabab House,Champaign,40.1102799,-88.22980140000001,41,3.5,1.0,0.0,0.0,0.0,0.0,0.0,0.0,0.0,0.0,0.0,156,2.018796991639578
ckdGk8ForF9zEczmu4-tTA,Strawberry Fields,Champaign,40.112612799999994,-88.21138979999999,16,3.0,1.0,1.0,0.0,0.0,0.0,0.0,0.0,1.0,0.0,0.0,157,2.26413048721121
0ptR21GHRuQ1MFtxGNcxzw,Milo's Restaurant,Champaign,40.0838527,-88.1904943,72,3.0,1.0,0.0,0.0,0.0,0.0,0.0,0.0,0.0,0.0,0.0,158,1.9396399997428682
dIUHCuiAlzkxfgCEOtky8w,Triptych Brewing,Champaign,40.076844,-88.249369,35,4.5,0.0,0.0,0.0,1.0,1.0,0.0,0.0,0.0,0.0,0.0,159,2.71742028549806
-5NXoZeGBdx3Bdk70tuyCw,Po' Boys Restaurant,Champaign,40.1176953,-88.20587420000001,46,4.0,1.0,0.0,0.0,0.0,0.0,0.0,0.0,0.0,0.0,0.0,160,2.1954172338808093
A_wn7gdvQAv5F2-0CBjgEA,Buffalo Wild Wings,Champaign,40.0701899852,-88.25128555299999,55,3.5,1.0,0.0,0.0,1.0,1.0,0.0,0.0,0.0,0.0,0.0,161,1.9611781302764764
JbnNk6do3aHF3Kr1bX4HzQ,Jupiter's Pizzeria and Billards,Champaign,40.081504200000005,-88.29634370000001,68,3.0,1.0,0.0,0.0,1.0,0.0,0.0,0.0,0.0,1.0,0.0,162,1.9156344908227734
7AlULGZI1pHt0imODsqdkg,Potbelly Sandwich Shop,Champaign,40.110062899999996,-88.231789,29,4.0,1.0,0.0,0.0,0.0,0.0,0.0,0.0,0.0,0.0,0.0,163,2.3908844975636265
VHsNB3pdGVcRgs6C3jt6Zg,Dublin O'Neil's,Champaign,40.1190386,-88.2438816,107,3.5,1.0,0.0,0.0,0.0,0.0,0.0,0.0,0.0,0.0,0.0,164,2.2686831301269934
bkh5o6bCzDCovSkRYBsU1w,LongHorn Steakhouse,Champaign,40.1413941,-88.2585101,39,3.0,1.0,0.0,0.0,0.0,0.0,0.0,0.0,0.0,0.0,0.0,165,2.0014113585744187
uvVOuCbo4_5z_J5WJVG4QQ,Joe's Brewery,Champaign,40.109713,-88.2317829,36,3.0,1.0,0.0,0.0,1.0,1.0,0.0,0.0,0.0,0.0,0.0,166,1.7559379359535199
1jt4SuIHAtXD9aPnPqZ3BQ,The Art Theater,Champaign,40.118534999999994,-88.24466600000001,31,5.0,0.0,0.0,0.0,0.0,0.0,0.0,0.0,0.0,1.0,0.0,167,2.9671940816837212
UmZdQID7QJoyg2R92mK3HA,Siam Terrace,Champaign,40.112708000000005,-88.209446,151,4.0,1.0,0.0,0.0,0.0,0.0,0.0,0.0,0.0,0.0,0.0,168,2.3529361341374133
sjpsGKPABZDnABCv3wYtUQ,Rosati's Pizza,Champaign,40.1065482,-88.2217353,44,3.0,1.0,0.0,0.0,0.0,0.0,0.0,0.0,0.0,0.0,0.0,169,2.243629152263577
dEKnEqm6Q44copoadiT8Iw,Perkins Restaurant & Bakery,Champaign,40.116586700000006,-88.22537740000001,40,2.5,1.0,0.0,0.0,0.0,0.0,0.0,0.0,0.0,0.0,0.0,170,1.392649851792856
VIJ2KiDKhUVhhpNylEIfog,Maize Mexican Grill,Champaign,40.1104086,-88.2389546,414,4.5,1.0,0.0,0.0,0.0,0.0,0.0,0.0,0.0,0.0,0.0,171,2.7376170564291313
SVXpyYPAuvJVKcfZ0nMKyg,The Canopy Club,Champaign,40.106689,-88.223507,36,3.5,0.0,0.0,0.0,1.0,0.0,0.0,0.0,0.0,1.0,0.0,172,2.29874499655531
0grgvnq4GgoY-estWytUhg,Timpone's,Champaign,40.1064412,-88.2236523,79,3.5,1.0,0.0,0.0,0.0,0.0,0.0,0.0,0.0,0.0,0.0,173,2.073975282295114
hDhC_DgEIKK5D961doKOXQ,Durst Cycle & Fitness,Champaign,40.1166867,-88.2237355,23,2.0,0.0,1.0,0.0,0.0,0.0,1.0,0.0,0.0,0.0,0.0,174,1.9801885899974183
1S6eB9Ag2VMx3Ab7LHORJw,Aroma Curry House,Champaign,40.082023299999996,-88.2959126,34,3.5,1.0,0.0,0.0,0.0,0.0,0.0,0.0,0.0,0.0,0.0,175,2.314144337025703
Igr5Id1TWyM3JLsY_td9_w,Jimmy John's,Champaign,40.1055528,-88.2194171,26,4.0,1.0,0.0,0.0,0.0,0.0,0.0,0.0,0.0,0.0,0.0,176,2.413109357414783
t_yiQnxUDdPPCN2z4QyezA,Golden Harbor Authentic Chinese Cuisine,Champaign,40.1111456,-88.2441689,284,4.5,1.0,0.0,0.0,0.0,0.0,0.0,0.0,0.0,0.0,0.0,177,2.701570765245559
D-B5LsTHJgrhsHVex4gyHA,Layalina Mediterranean Grill,Champaign,40.112801,-88.239078,52,3.5,1.0,0.0,0.0,0.0,0.0,0.0,0.0,0.0,0.0,0.0,178,2.041181284105233
Y-rCSbMqXWk54bKRAIoyUQ,Caffe Paradiso,Champaign,40.105737299999994,-88.2194085,84,3.5,1.0,0.0,0.0,0.0,0.0,0.0,0.0,1.0,0.0,0.0,179,2.3071772942807565
RwHE2Rt-DHlwWuxFLjPbgA,Dos Reales,Champaign,40.1166989,-88.223116,26,3.5,1.0,0.0,0.0,0.0,0.0,0.0,0.0,0.0,0.0,0.0,180,1.8788991110490134
e88VWa9xdHmSFdMZne9eLQ,Mandarin Wok,Champaign,40.110031899999996,-88.23307790000001,55,3.5,1.0,0.0,0.0,0.0,0.0,0.0,0.0,0.0,0.0,0.0,181,2.132303616479825
C31ExBTn_6UxbTVkWPtNkg,Yellowfin Japanese Restaurant,Champaign,40.0987255,-88.2470903,97,3.5,1.0,0.0,0.0,0.0,0.0,0.0,0.0,0.0,0.0,0.0,182,2.2409052551745923
o13eH93qmWVNFZogkjhd9w,Courier Cafe,Champaign,40.112822526900004,-88.20902299139999,287,4.0,1.0,0.0,0.0,0.0,0.0,0.0,0.0,0.0,0.0,0.0,183,2.319928522708956
ldKrUirpZZ6JDnNwOwLpvw,Ichiban Buffet,Champaign,40.11704829999999,-88.2783637,33,3.0,1.0,0.0,0.0,0.0,0.0,0.0,0.0,0.0,0.0,0.0,184,1.9492686711781055
E8b-loa-89wsnJpu9ff_Gg,El Toro Bravo,Champaign,40.112390977,-88.28981217120001,34,3.0,1.0,0.0,0.0,0.0,0.0,0.0,0.0,0.0,0.0,0.0,185,1.7397277184289934
ZyOgY-z9sHdHp8_FDoQAJg,Scotty's Brewhouse,Champaign,40.0922834,-88.245524,28,4.0,1.0,0.0,0.0,0.0,0.0,0.0,0.0,0.0,0.0,0.0,186,2.233537633460889
o-xFcSeSycAfqplklC222Q,One World Pizza,Champaign,40.110827,-88.231612,13,3.5,1.0,0.0,0.0,0.0,0.0,0.0,0.0,0.0,0.0,0.0,187,2.3180648913083624
r8h3_Chc7davvVelcvV-NQ,Kane & Company,Champaign,40.116023999999996,-88.24218499999999,59,4.5,0.0,0.0,1.0,0.0,0.0,0.0,0.0,0.0,0.0,0.0,188,2.6089059182767946
5CSGxhesXkz2XNQB8AP6Kw,Spoon House Korean Kitchen,Champaign,40.1106295,-88.2296312,65,3.0,1.0,0.0,0.0,0.0,0.0,0.0,0.0,0.0,0.0,0.0,189,2.1201067433148832
gnqHyA6gY2-m9S-FKt6Xqw,Cravings,Champaign,40.1112203703,-88.2290604075,129,4.0,1.0,0.0,0.0,0.0,0.0,0.0,0.0,0.0,0.0,0.0,190,2.369150809171355
PD2MAlYYi9HCqPH7IBKwTg,La Bamba,Champaign,40.111016,-88.230183,18,4.0,1.0,0.0,0.0,0.0,0.0,0.0,0.0,0.0,0.0,0.0,191,1.9692680736124542
ab-SN9sTNB29QzrgjgniUQ,Espresso Royale,Champaign,40.1080874,-88.23020799999999,28,3.0,0.0,0.0,0.0,0.0,0.0,0.0,0.0,1.0,0.0,0.0,192,1.546559613743746
SmHuGnqBCjGg5e8QAkBTtA,V. Picasso,Champaign,40.112708000000005,-88.209562,35,3.0,1.0,0.0,0.0,0.0,0.0,0.0,0.0,0.0,0.0,0.0,193,1.8259360032367598
8mKV3KThn3wXGL3OVxrCNg,Sitara,Champaign,40.111959000000006,-88.208652,142,4.0,1.0,0.0,0.0,0.0,0.0,0.0,0.0,0.0,0.0,0.0,194,2.5320173052704944
Z7r_FJXEyfyvVsyv2y7gFQ,Cactus Grill,Champaign,40.099647600000004,-88.2447937,45,4.0,1.0,0.0,0.0,0.0,0.0,0.0,0.0,0.0,0.0,0.0,195,2.3311621599351
CSn2-XpArLLYeZ_k2BKzrg,Quality Beer,Champaign,40.116827656999995,-88.2433574314,36,4.0,0.0,0.0,0.0,1.0,1.0,0.0,0.0,0.0,0.0,0.0,196,2.3843037975142978
kj44upIDaMIPlYvsuweP4g,Geovanti's,Champaign,40.1100246,-88.2332899,33,3.5,1.0,0.0,0.0,1.0,1.0,0.0,0.0,0.0,0.0,0.0,197,1.8339279371547164
hJ88unGZxRYN85XQ0qAS4g,Binny's Beverage Depot,Champaign,40.143525200000006,-88.2568302,21,4.5,0.0,1.0,0.0,0.0,0.0,0.0,0.0,0.0,0.0,0.0,198,2.8220367385828706
Frbldz6phswVyMNvwherhA,My Thai,Champaign,40.1130999636,-88.2858967781,78,3.5,1.0,0.0,0.0,0.0,0.0,0.0,0.0,0.0,0.0,0.0,199,2.305197741196847
tjflM9icU-y6xqNntOXtOQ,Far East,Champaign,40.115755,-88.232332,27,3.5,1.0,0.0,0.0,0.0,0.0,0.0,0.0,0.0,0.0,0.0,200,2.137417176504875
WDTzX_C2CbAwxBbqm-od6g,Cowboy Monkey,Champaign,40.1175498,-88.24313409999999,45,3.0,1.0,0.0,0.0,1.0,1.0,0.0,0.0,0.0,1.0,0.0,201,1.8458232904066962
eJtmOfqwGj5sYKQrB01oWQ,Slim Chickens,Champaign,40.0903091,-88.24587079999999,24,3.0,1.0,0.0,0.0,0.0,0.0,0.0,0.0,0.0,0.0,0.0,202,2.2125866876850266
dVBp-ayxdvwG95BYfqKwDw,Art Mart,Champaign,40.1112662,-88.2071884,17,4.5,0.0,1.0,0.0,0.0,0.0,0.0,0.0,0.0,1.0,0.0,203,2.647791433507031
ovApUucCKSb9k0lTP2JieQ,Huaraches Moroleon,Champaign,40.105859,-88.1951107,121,4.5,1.0,0.0,0.0,0.0,0.0,0.0,0.0,0.0,0.0,0.0,204,2.6799335835153144
dIZcPB3CtNjMn4O_p8QFxw,Original Pancake House,Champaign,40.112887,-88.278369,159,4.0,1.0,0.0,0.0,0.0,0.0,0.0,0.0,0.0,0.0,0.0,205,2.5066998725723426
CpNMXASiwtJv5eCDf0n63g,Alexander's Steakhouse,Champaign,40.135881,-88.245468,54,3.0,1.0,0.0,0.0,0.0,0.0,0.0,0.0,0.0,0.0,0.0,206,1.8527815363457887
kUICYu0N_TbtCz0Z8ynPFw,Chipotle Mexican Grill,Champaign,40.110374778200004,-88.2306922227,65,3.0,1.0,0.0,0.0,0.0,0.0,0.0,0.0,0.0,0.0,0.0,207,2.3335394180334554
t0f8qXrKGNWv6j8MGmosRg,Caffebene,Champaign,40.106510899999996,-88.2218027,52,2.5,1.0,0.0,0.0,0.0,0.0,0.0,0.0,1.0,0.0,0.0,208,1.8921027247111588
iBRwl7sirmvg22AYnMPONQ,Miko,Champaign,40.116124,-88.21181,22,2.5,1.0,0.0,0.0,0.0,0.0,0.0,0.0,0.0,0.0,0.0,209,1.7760152150247204
Wq84zy8_rw1IkAqPcPqJ9g,Das Cafe,Champaign,40.1124516,-88.20825959999999,23,4.0,1.0,0.0,0.0,0.0,0.0,0.0,0.0,0.0,0.0,0.0,210,2.366091779537856
4SGa5HFu7Q4rrsAAWJa-ew,Popeyes,Champaign,40.133679605,-88.26020394870001,26,3.0,1.0,0.0,0.0,0.0,0.0,0.0,0.0,0.0,0.0,0.0,211,1.877633124321661
2wNI-81CncuC21xr92anTA,Urbana Garden Family Restaurant,Champaign,40.1329664,-88.2188183,38,3.5,1.0,0.0,0.0,0.0,0.0,0.0,0.0,0.0,0.0,0.0,212,2.041980439072772
BsxefnHbrpDN7HB2hJrEiw,Taco Motorizado,Champaign,40.1186156,-88.20411309999999,25,4.5,1.0,0.0,0.0,0.0,0.0,0.0,0.0,0.0,0.0,0.0,213,2.8094993095979772
zswdqM8Av3KxVv9o7_6ORA,Rainbow Garden,Champaign,40.10045039999999,-88.24394620000001,58,3.5,1.0,0.0,0.0,0.0,0.0,0.0,0.0,0.0,0.0,0.0,214,2.2878611032723897
CJ0sbMmixbh21d9fUoBEMg,Espresso Royale,Champaign,40.1068514924,-88.2236856091,49,3.5,0.0,0.0,0.0,0.0,0.0,0.0,0.0,1.0,0.0,0.0,215,2.0799454604964094
BQbDU21SuXERM_gK9AA9AQ,Einstein Bros Bagels,Champaign,40.116138,-88.21977,23,3.5,1.0,0.0,0.0,0.0,0.0,0.0,0.0,0.0,0.0,0.0,216,2.0241294250067017
zQNJwaWR1M1zDjLNVJiNEw,Pizza M,Champaign,40.112655,-88.2093142,53,4.0,1.0,0.0,0.0,0.0,0.0,0.0,0.0,0.0,0.0,0.0,217,2.4509530018061705
rXIDrS8Rz8r09vH4gjHfGQ,Manolo's Pizza & Empanadas,Champaign,40.1069322429,-88.22340637149999,81,3.5,1.0,0.0,0.0,0.0,0.0,0.0,0.0,0.0,0.0,0.0,218,2.43040815393532
ZQH1s3nTDyclGrQ160NrEQ,Lil Porgy's Bar-B-Que,Champaign,40.116214,-88.207915,75,3.5,1.0,0.0,0.0,0.0,0.0,0.0,0.0,0.0,0.0,0.0,219,2.2500006502132313
w9h-pTp1K6JMos-xzl3Wyw,Hot Wok Express,Champaign,40.1166669,-88.2226072,23,3.0,1.0,0.0,0.0,0.0,0.0,0.0,0.0,0.0,0.0,0.0,220,1.7679831182740944
GSe0S6LTB01O5z-6V6T87g,H2O Salon,Champaign,40.113195000000005,-88.207789,62,4.0,0.0,0.0,1.0,0.0,0.0,0.0,0.0,0.0,0.0,0.0,221,2.7011615266617013
vt2NMSbKpVN0r0HI6Az4bw,Bevier Cafe,Champaign,40.1047765,-88.2246853,22,4.5,1.0,0.0,0.0,0.0,0.0,0.0,0.0,0.0,0.0,0.0,222,2.5834616733802918
pVLZQRs67CF4gZCEYCe_3Q,Hickory River Smokehouse,Champaign,40.128807,-88.197784,77,3.5,1.0,0.0,0.0,0.0,0.0,0.0,0.0,0.0,0.0,0.0,223,2.2780938238890713
F1qPjasn0R6-j8sa6iYNmA,Guido's Bar & Grill,Champaign,40.1178627014,-88.2433013916,95,3.0,1.0,0.0,0.0,1.0,1.0,0.0,0.0,0.0,0.0,0.0,224,1.8174987019597824
pH72Y8aqqJlq3bgtj-d3UA,The Great Impasta,Champaign,40.111241899999996,-88.2072116,27,3.0,1.0,0.0,0.0,0.0,0.0,0.0,0.0,0.0,0.0,0.0,225,2.303695562458044
HAgPykErkXpPJlwOHbY01Q,J Gumbo's,Champaign,40.106510899999996,-88.2218027,62,4.0,1.0,0.0,0.0,0.0,0.0,0.0,0.0,0.0,0.0,0.0,226,2.5145131942859917
yUB8CDsYMES3cN-xcHXCkQ,Flying Machine Coffee,Champaign,40.1123976963,-88.209259671,71,4.0,0.0,0.0,0.0,0.0,0.0,0.0,0.0,1.0,0.0,0.0,227,2.673378879262629
u8C8pRvaHXg3PgDrsUHJHQ,Papa Del's Pizza,Champaign,40.1032417,-88.2441637,327,3.5,1.0,0.0,0.0,0.0,0.0,0.0,0.0,0.0,0.0,0.0,228,2.3076209439997064
lrrUyxzlvqp-niBEj6_6dg,Niro's Gyros,Champaign,40.1161404,-88.2216747,41,3.5,1.0,0.0,0.0,0.0,0.0,0.0,0.0,0.0,0.0,0.0,229,2.1536839021907896
f_CDR6H4QL1K3SeaBe7r3g,Sammy's Pancake House,Champaign,40.128394,-88.276557,34,4.0,1.0,0.0,0.0,0.0,0.0,0.0,0.0,0.0,0.0,0.0,230,2.384033325464948
QD61fmXTp476qfS0dpt2Lw,Strawberry Fields,Champaign,40.1125585,-88.2114234,34,3.0,0.0,0.0,0.0,0.0,0.0,0.0,0.0,1.0,0.0,0.0,231,2.151784830064063
RbKaSbMnvK0tc2p2UnNMwA,Savoy 16,Champaign,40.0729000347,-88.2520373409,39,4.0,0.0,0.0,0.0,0.0,0.0,0.0,0.0,0.0,1.0,0.0,232,2.6018671716623936
C3d4HqDjWq9e_0cPfmPykg,Moe's Southwest Grill,Champaign,40.0903035,-88.24587170000001,19,3.0,1.0,0.0,0.0,0.0,0.0,0.0,0.0,0.0,0.0,0.0,233,1.8719971477680009
iZleRh4SOtf4GquA5L8WXw,Crane Alley,Champaign,40.112250599999996,-88.2080393,151,3.5,1.0,0.0,0.0,1.0,1.0,0.0,0.0,0.0,0.0,0.0,234,2.2231491575196927
2qLOnQtWSlTOtkfEFyWScg,Willard Airport,Champaign,40.03648870000001,-88.26390440000002,30,4.0,0.0,0.0,0.0,0.0,0.0,0.0,0.0,0.0,0.0,1.0,235,2.503247134079552
pMiz7SP82Tknv1NbVqoSfg,Black Dog Smoke & Ale House,Champaign,40.117421,-88.2406815,125,4.0,1.0,0.0,0.0,1.0,1.0,0.0,0.0,0.0,0.0,0.0,236,2.507121494274718
ejdBoVvEdn5fdycuJRen8Q,First Wok,Champaign,40.096294799999995,-88.1920978,29,4.0,1.0,0.0,0.0,0.0,0.0,0.0,0.0,0.0,0.0,0.0,237,2.5105597212495185
eJRjKphPYmdttj7LKpCk1Q,Allerton Park & Retreat Center,Champaign,40.0051055,-88.6449587,27,4.5,0.0,0.0,0.0,0.0,0.0,1.0,0.0,0.0,0.0,1.0,238,2.6997995787929594
RnGG5bAz4nTPo_Ui99Kzbg,Le Peep Restaurant,Champaign,40.0872123679,-88.2480189793,94,3.5,1.0,0.0,0.0,0.0,0.0,0.0,0.0,0.0,0.0,0.0,239,2.3124478858897146
PiD4hteskHnFC4GowN34cw,Espresso Royale,Champaign,40.0994856,-88.2448316,31,3.0,0.0,0.0,0.0,0.0,0.0,0.0,0.0,1.0,0.0,0.0,240,2.028604551909257
9MnbQg7kfb_WgxoV0hXKSQ,Black Dog Smoke & Ale House,Champaign,40.113818215500004,-88.2076892527,697,4.5,1.0,0.0,0.0,0.0,0.0,0.0,0.0,0.0,0.0,0.0,241,2.738799545708746
kokytV29X4717mjIC3H7Xg,Papa John's Pizza,Champaign,40.1131801,-88.2837494,14,2.5,1.0,0.0,0.0,0.0,0.0,0.0,0.0,0.0,0.0,0.0,242,1.6204725385060035
oWQwUw8xfQgi1nVNKgS6vA,Silvercreek,Champaign,40.115460999999996,-88.20860390000001,105,3.5,1.0,0.0,0.0,0.0,0.0,0.0,0.0,0.0,0.0,0.0,243,2.2093118123660673
TEXUVhF-G_v2Sxwqti8HQA,Old Chicago,Champaign,40.139794,-88.243786,51,3.0,1.0,0.0,0.0,0.0,0.0,0.0,0.0,0.0,0.0,0.0,244,1.7259062558443263
l4x5FFzfiCFrGN0S-uZbBQ,Nando Milano Trattoria,Champaign,40.1175503,-88.243507,97,4.0,1.0,0.0,0.0,0.0,0.0,0.0,0.0,0.0,0.0,0.0,245,2.3524770405848074
yE4k_CM9L0yPVVozyELfSQ,Noodles & Company,Champaign,40.11050170000001,-88.2306324,37,3.0,1.0,0.0,0.0,0.0,0.0,0.0,0.0,0.0,0.0,0.0,246,2.048784722397722
24UHe1SZ4cgm6u6bU_L6xA,Sushi Rock,Champaign,40.1100643,-88.22949399999999,42,3.0,1.0,0.0,0.0,0.0,0.0,0.0,0.0,0.0,0.0,0.0,247,1.8680648630249692
-S1BkxguVmi2G_O6Bcoabg,Steak 'n Shake,Champaign,40.0949565,-88.245852,37,2.5,1.0,0.0,0.0,0.0,0.0,0.0,0.0,0.0,0.0,0.0,248,1.7239956051549297
kLojwXxsSWHtL_AxeBie1A,Starbucks,Champaign,40.1100452,-88.2317182,32,3.0,0.0,0.0,0.0,0.0,0.0,0.0,0.0,1.0,0.0,0.0,249,2.041939780466949
aELkI0mfF1EbQo_m44vEKg,O'Charley's Restaurant & Bar,Champaign,40.143217299999996,-88.2559911,40,3.0,1.0,0.0,0.0,0.0,0.0,0.0,0.0,0.0,0.0,0.0,250,1.9690348661521622
kKCwp86xU9XKRnAALQDhrw,The Red Herring Vegetarian Restaurant,Champaign,40.106704,-88.225188,49,4.0,1.0,0.0,0.0,0.0,0.0,0.0,0.0,0.0,0.0,0.0,251,2.5281402088633254
d-l0D4N236Qc0-Iy-p1cFw,Cracker Barrel Old Country Store,Champaign,40.133434,-88.19948409999999,23,3.5,1.0,0.0,0.0,0.0,0.0,0.0,0.0,0.0,0.0,0.0,252,2.068937705948776
NSzhahVpI_B32snhJHM0HA,Texas Roadhouse,Champaign,40.117932,-88.2810949,74,3.5,1.0,0.0,0.0,0.0,0.0,0.0,0.0,0.0,0.0,0.0,253,2.470783924054062
2pbOSrbB5AtQIa240AXNvQ,Panera Bread,Champaign,40.138507000000004,-88.243173,32,2.5,1.0,0.0,0.0,0.0,0.0,0.0,0.0,1.0,0.0,0.0,254,1.8260652396108379
vCopginiBsz1STNhQPb8XA,The Dancing Dog Eatery & Juicery,Champaign,40.112757,-88.20850290000001,50,4.0,1.0,0.0,0.0,0.0,0.0,0.0,0.0,0.0,0.0,0.0,255,2.543016288961743
RQxLNvAra_MUUPHdhukilA,Houlihan's,Champaign,40.093716799999996,-88.2373608,71,3.0,1.0,0.0,0.0,1.0,1.0,0.0,0.0,0.0,0.0,0.0,256,1.945543311968006
9HP13JaP9nmN3qX5v0jamw,Ruby Tuesday,Champaign,40.1437944,-88.2583963,33,3.0,1.0,0.0,0.0,0.0,0.0,0.0,0.0,0.0,0.0,0.0,257,1.7969669198094913
hvPPw19VdGRsOEkxgyD7tg,Thara Thai,Champaign,40.1335532,-88.2602612,160,4.0,1.0,0.0,0.0,0.0,0.0,0.0,0.0,0.0,0.0,0.0,258,2.6004228363295914
KGpsB2dsdkxl8SGVUlJbZw,Outback Steakhouse,Champaign,40.144995,-88.257184,34,2.5,1.0,0.0,0.0,0.0,0.0,0.0,0.0,0.0,0.0,0.0,259,1.6875410188643567
JmYYGu_FIdYVvNXRsucAvQ,Modern Nails Salon,Champaign,40.0977614,-88.2746608,34,3.5,0.0,0.0,1.0,0.0,0.0,0.0,0.0,0.0,0.0,0.0,260,2.6566679001065467
z2s_fuJZzaSNgL3XW8fclQ,Soma Ultralounge,Champaign,40.118679,-88.242863,18,3.0,0.0,0.0,0.0,1.0,1.0,0.0,0.0,0.0,0.0,0.0,261,1.743490657037258
c2uAqJ2REpLMCZO2jxdi9w,Five Guys Burgers and Fries,Champaign,40.1376647949,-88.2584609985,22,3.5,1.0,0.0,0.0,0.0,0.0,0.0,0.0,0.0,0.0,0.0,262,2.2974873993239444
QxbVPV2xndVP-nT1IRKF1w,El Torero,Champaign,40.1131042,-88.28575759999998,16,3.5,1.0,0.0,0.0,0.0,0.0,0.0,0.0,0.0,0.0,0.0,263,2.1782034567478434
FUr2uEolARu7rv2TQYKPqg,Za's Italian Cafe,Champaign,40.113246999999994,-88.28197850000001,46,3.5,1.0,0.0,0.0,0.0,0.0,0.0,0.0,0.0,0.0,0.0,264,2.1615339297416885
yiFcujhdkeDhmXRufMG-lw,Masijta Grill,Champaign,40.113760799999994,-88.2088348,60,4.0,1.0,0.0,0.0,0.0,0.0,0.0,0.0,0.0,0.0,0.0,265,2.3445414698641445
tLgKerW16F9V239MjNA2PA,Blain's Farm & Fleet,Champaign,40.140714,-88.1937109,21,3.5,0.0,1.0,0.0,0.0,0.0,0.0,1.0,0.0,0.0,0.0,266,2.220342139745574
Zc3hqSZHkuELzpyRmv6nrQ,Iron Post,Champaign,40.1117245259,-88.2088422693,17,3.5,0.0,0.0,0.0,1.0,1.0,0.0,0.0,0.0,0.0,0.0,267,2.093948809724289
ly0oNXKOoSZyr0mzOsVJhg,Monical's Pizza,Champaign,40.118026,-88.277573,27,3.0,1.0,0.0,0.0,0.0,0.0,0.0,0.0,0.0,0.0,0.0,268,1.7428962220447537
8k2l-fbaeQU9lVG4oRgxUw,Prairie Fire Restaurant,Champaign,40.097136,-88.245695,24,3.0,1.0,0.0,0.0,0.0,0.0,0.0,0.0,0.0,0.0,0.0,269,2.420609443310461
SgG5E7PUrCIsEMP0BVSlTg,Cheese and Crackers,Champaign,40.098225799999994,-88.27398000000001,59,4.5,1.0,0.0,0.0,0.0,0.0,0.0,0.0,0.0,0.0,0.0,270,2.533571855882087
zAD08AT1GgX-cVNy9iMq4A,Activities and Recreation Center - ARC,Champaign,40.1013126,-88.236018,18,4.0,0.0,0.0,0.0,0.0,0.0,1.0,0.0,0.0,0.0,0.0,271,2.642789887607502
tjM2CZqRJ17oFapBTmGovw,Panchero's Mexican Grill,Champaign,40.116832,-88.207131,34,2.0,1.0,0.0,0.0,0.0,0.0,0.0,0.0,0.0,0.0,0.0,272,1.4591890785130184
PgMt7JtwUB-QUoRZAbwUng,Chili's,Champaign,40.139041999999996,-88.258619,31,2.5,1.0,0.0,0.0,1.0,1.0,0.0,0.0,0.0,0.0,0.0,273,1.5782814505287739
U8VXQaeog9wb_Y6hCkfitg,Super Taco,Champaign,40.1416706081,-88.2522016918,31,3.5,1.0,0.0,0.0,0.0,0.0,0.0,0.0,0.0,0.0,0.0,274,2.3456646736604707
vVdY2qDO7dkUrU8LXYZ1uA,Green Jade,Champaign,40.0835383,-88.2228985,26,4.0,1.0,0.0,0.0,0.0,0.0,0.0,0.0,0.0,0.0,0.0,275,2.3786418675210936
O3zVw-VAcJi8ta4B6v5iAA,Sun Singer Wine and Spirits,Champaign,40.0831838,-88.264391,78,4.0,1.0,0.0,0.0,1.0,1.0,0.0,0.0,0.0,0.0,0.0,276,2.4827450776064786
ZxQlHVm0pj0ERqpwhEHc6w,San Maru,Champaign,40.0818615,-88.2963452,31,4.5,1.0,0.0,0.0,0.0,0.0,0.0,0.0,0.0,0.0,0.0,277,2.7126960597673992
J5U-nbhKSnnX7DJGT6QELg,The Apple Dumplin',Champaign,40.1336703544,-88.1625332782,28,3.5,1.0,0.0,0.0,0.0,0.0,0.0,0.0,0.0,0.0,0.0,278,1.9792362733881796
uMuTnzVi9DzDXfG7gVDU3A,Cocina Real Mexican Restaurant,Champaign,40.1166989,-88.223116,17,4.0,1.0,0.0,0.0,0.0,0.0,0.0,0.0,0.0,0.0,0.0,279,2.2555974300221755
Ah4i15g8Ow_zphzcpulTxQ,The Bread Company,Champaign,40.1066554,-88.22362779999999,105,3.5,1.0,0.0,0.0,0.0,0.0,0.0,0.0,0.0,0.0,0.0,280,2.172111344627695
NZ3A0xYdnmIG68mZeZV6AA,Bunny's Tavern,Champaign,40.1132,-88.208287,32,4.0,1.0,0.0,0.0,1.0,1.0,0.0,0.0,0.0,0.0,0.0,281,2.4229551819588018
QdganL5AW9E_fNoRVroLig,Golden Wok,Champaign,40.1160086,-88.2328394,88,4.0,1.0,0.0,0.0,0.0,0.0,0.0,0.0,0.0,0.0,0.0,282,2.3940454323608624
wpDJUu8Ty_eyQJENUy7fIw,Smoky's House BBQ,Champaign,40.0713235719,-88.2517381982,43,3.5,1.0,0.0,0.0,0.0,0.0,0.0,0.0,0.0,0.0,0.0,283,2.1507059537637425
UTrqsP-oQrwoIOmBv_Jtzg,Merry Ann's Diner,Champaign,40.106841100000004,-88.2218579,35,3.5,1.0,0.0,0.0,0.0,0.0,0.0,0.0,0.0,0.0,0.0,284,2.321381501807794
a9KUNRphQVLeCsC3RAEQPA,Ippatsu Salon,Champaign,40.1155274,-88.23922900000001,49,4.0,0.0,1.0,1.0,0.0,0.0,0.0,0.0,0.0,1.0,0.0,285,2.7777980380297045
w2xwgqHM7dJlHfyu4ouhBg,Azzip Pizza,Champaign,40.1099251,-88.23146170000001,30,4.0,1.0,0.0,0.0,0.0,0.0,0.0,0.0,0.0,0.0,0.0,286,2.3607024221340094
dn9lwYUxmhs_mLKPu7L25Q,Big Grove Tavern,Champaign,40.1183809,-88.2429963,248,3.5,1.0,0.0,0.0,1.0,1.0,0.0,0.0,0.0,0.0,0.0,287,2.227053773945928
JbWQtVLQDEOBlvbVWk2OFg,Chipotle Mexican Grill,Champaign,40.1361978,-88.2599453,32,3.5,1.0,0.0,0.0,0.0,0.0,0.0,0.0,0.0,0.0,0.0,288,2.455641188254213
UITomlnpbixMcYNXsVV9Rg,Schnucks Champaign Florists & Gifts,Champaign,40.116530299999994,-88.27693719999999,23,3.5,0.0,1.0,0.0,0.0,0.0,0.0,0.0,0.0,0.0,0.0,289,2.316042047878394
4cPM1Hcj3UiN3fxyOsiR9w,Li'l Porgy's Bbq,Champaign,40.112421000000005,-88.280002,78,3.5,1.0,0.0,0.0,0.0,0.0,0.0,0.0,0.0,0.0,0.0,290,2.4382551114303173
xFXMYwm_60C4UisipsGpTg,Butcher Boy Burgers,Champaign,40.3054069279,-88.1580140017,15,3.5,1.0,0.0,0.0,0.0,0.0,0.0,0.0,0.0,0.0,0.0,291,1.9552298785667341
XbHxWOciYlBhJOjKRQbo9g,Meijer,Champaign,40.145120399999996,-88.2606888,44,3.5,1.0,0.0,0.0,0.0,0.0,0.0,0.0,0.0,0.0,0.0,292,2.1353648252793587
mofOjB6flg-eAWOFbOkHfQ,ChinaTown Buffet,Champaign,40.1373032,-88.2560119,44,2.5,1.0,0.0,0.0,0.0,0.0,0.0,0.0,0.0,0.0,0.0,293,1.792762919931284
-i3dOjumvOw-52aGXU1xDg,Starbucks,Champaign,40.1481613,-88.2572428,38,3.0,0.0,0.0,0.0,0.0,0.0,0.0,0.0,1.0,0.0,0.0,294,1.9460974011211067
