business_id,name,city,latitude,longitude,review_count,stars,Restaurants,Shopping,Beauty & Spas,Nightlife,Bars,Active Life,Fashion,Coffee & Tea,Arts & Entertainment,Hotels & Travel,int_b_id,latent_1
Mi5uhdFB9OJteXPd0_IKfw,Carrabba's Italian Grill,Phoenix,33.6393005153,-112.180893379,119,3.5,1.0,0.0,0.0,0.0,0.0,0.0,0.0,0.0,0.0,0.0,0,2.182864753841921
YPavuOh2XsnRbLfl0DH2lQ,Lo-Lo's Chicken & Waffles,Phoenix,33.4353717916,-112.073970304,1276,4.0,1.0,0.0,0.0,0.0,0.0,0.0,0.0,0.0,0.0,0.0,1,2.558035570265404
Ja4stXdNYr39u5CZHMNtjw,Cien Agaves Tacos & Tequila,Phoenix,33.494398600000004,-111.9253409,480,3.5,1.0,0.0,0.0,0.0,0.0,0.0,0.0,0.0,0.0,0.0,2,2.2453501492283845
2px99IppAcnxR238eq_8_w,Big Buddha,Phoenix,33.6252846267,-112.414446464,273,4.0,1.0,0.0,0.0,0.0,0.0,0.0,0.0,0.0,0.0,0.0,3,2.3055492439093053
S6HTXcS97j173_btjN8w7Q,Famous Dave's,Phoenix,33.633666,-112.235047,177,3.5,1.0,0.0,0.0,0.0,0.0,0.0,0.0,0.0,0.0,0.0,4,2.3742020597743156
SYa2j1boLF8DcGVOYfHPcA,Five Guys Burgers and Fries,Phoenix,33.50406238,-111.92943064200001,81,3.0,1.0,0.0,0.0,0.0,0.0,0.0,0.0,0.0,0.0,0.0,5,1.977692456773782
ndXuzuD4BpNIrm1I0nTsww,Distrito,Phoenix,33.4943298,-111.9224801,301,3.5,1.0,0.0,0.0,0.0,0.0,0.0,0.0,0.0,0.0,0.0,6,2.413839842707182
-jKBFjNTbiafSdunQy6dlQ,Mandarin Super Buffet,Phoenix,33.524008,-112.09119199999999,89,2.5,1.0,0.0,0.0,0.0,0.0,0.0,0.0,0.0,0.0,0.0,7,1.8164515211734218
Rud4J5Hsjn_jjU9IaQ0Dpw,The Melting Pot,Phoenix,33.6626966153,-112.18817108299999,164,4.0,1.0,0.0,0.0,0.0,0.0,0.0,0.0,0.0,0.0,0.0,8,2.4048285082740293
vYKZHWBuBT1PUevggLAE9w,Apple Store,Phoenix,33.639790999999995,-112.224556,108,3.0,0.0,1.0,0.0,0.0,0.0,0.0,0.0,0.0,0.0,0.0,9,2.2477922137559663
8Y5p2IQMLX6QjGPzxanexg,"Ohya Sushi, Korean Kitchen & Bar",Phoenix,33.6116508043,-112.165567973,342,3.5,1.0,0.0,0.0,0.0,0.0,0.0,0.0,0.0,0.0,0.0,10,2.0601441916372893
5P7zzVhWvO8nXGPdy7xqhw,LaMar's Donuts & Coffee,Phoenix,33.640341799999995,-112.11067240000001,157,4.5,1.0,0.0,0.0,0.0,0.0,0.0,0.0,1.0,0.0,0.0,11,2.682498473451058
d5n5CsoJNu-tKEbfI6U3tA,Olive Garden Italian Restaurant,Phoenix,33.6377418163,-112.227934548,111,3.0,1.0,0.0,0.0,1.0,1.0,0.0,0.0,0.0,0.0,0.0,12,1.964395388294032
FYa3GUro-ezTM9zvKiocFw,Greek Wraps,Phoenix,33.637659,-112.217436,434,4.5,1.0,0.0,0.0,0.0,0.0,0.0,0.0,0.0,0.0,0.0,13,2.691431207381917
e4HsCEpfXT3Djcgm8rSvSQ,Target,Phoenix,33.5209647,-112.09740819999999,83,4.0,0.0,1.0,0.0,0.0,0.0,0.0,1.0,0.0,0.0,0.0,14,2.6554062330748245
4iFYsHDzkuf3JjSzhaNd2g,Shane Co.,Phoenix,33.6183213,-111.92625190000001,188,4.5,0.0,1.0,0.0,0.0,0.0,0.0,0.0,0.0,0.0,0.0,15,2.6550247370055455
pvpS3RkO8Qsl759-Xz7YZg,Outback Steakhouse,Phoenix,33.6384672631,-112.17962145799999,99,3.5,1.0,0.0,0.0,0.0,0.0,0.0,0.0,0.0,0.0,0.0,16,2.238632809141924
5jxn3_C5rjBow-aiBqcQNg,REI,Phoenix,33.3918081494,-111.961647134,114,3.5,0.0,1.0,0.0,0.0,0.0,0.0,1.0,0.0,0.0,0.0,17,2.4184876811648177
JvHv4HDT7sU7rMYyDzJuMQ,Beverly on Main,Phoenix,33.49328,-111.92976499999999,98,4.0,1.0,0.0,0.0,1.0,1.0,0.0,0.0,0.0,0.0,0.0,18,2.5075807269868347
uwDyxK92ae5kNjeZE8uCgA,California Pizza Kitchen,Phoenix,33.4324152,-111.9052063,123,3.5,1.0,0.0,0.0,0.0,0.0,0.0,0.0,0.0,0.0,0.0,19,2.036723399166386
EtZacHzJ2gw0V9Sdm2rLQA,George's Gyros,Phoenix,33.4198793,-111.8394439,113,4.5,1.0,0.0,0.0,0.0,0.0,0.0,0.0,0.0,0.0,0.0,20,2.3834191001424028
iE71iwcSljg3xm2GB2Y9aA,Marigold Maison- Paradise Valley,Phoenix,33.5986308836,-111.97837182200001,288,4.5,1.0,0.0,0.0,0.0,0.0,0.0,0.0,0.0,0.0,0.0,21,2.565027173117827
gDjHnPJDx9ZVse0i9mp5hQ,La's Thai Cuisine,Phoenix,33.464511800000004,-111.9083172,166,4.0,1.0,0.0,0.0,0.0,0.0,0.0,0.0,0.0,0.0,0.0,22,2.3065258955122006
cXdQ3H0GqcIzRgrvBEaBxw,Noodle & Rice,Phoenix,33.5962271,-112.0359509,185,4.0,1.0,0.0,0.0,0.0,0.0,0.0,0.0,0.0,0.0,0.0,23,2.436187725573204
ZLhUJiLCk4WtHRzXS-nF0A,Nordstrom Rack,Phoenix,33.306009,-111.8857888,44,3.5,0.0,1.0,0.0,0.0,0.0,0.0,1.0,0.0,0.0,0.0,24,2.274744251707109
CA4qhLICQWX0H_bf9iGw0Q,Apple Store,Phoenix,33.3017106,-111.8985267,141,3.0,0.0,1.0,0.0,0.0,0.0,0.0,0.0,0.0,0.0,0.0,25,2.10837466265605
zNGYsFeG_7XEBodbtfux5Q,Khyber Halal,Phoenix,33.494220899999995,-112.0304976,208,4.0,1.0,0.0,0.0,0.0,0.0,0.0,0.0,0.0,0.0,0.0,26,2.6359817251546898
2Yq-Y-tDroP7mdDfcWJLCQ,Tacos Atoyac,Phoenix,33.53864,-112.09827299999999,312,4.5,1.0,0.0,0.0,0.0,0.0,0.0,0.0,0.0,0.0,0.0,27,2.7821105998549056
Bb-Y-gKgZJak83zfzQoj1g,Zur Kate,Phoenix,33.4149445,-111.726882,133,4.0,1.0,0.0,0.0,0.0,0.0,0.0,0.0,0.0,0.0,0.0,28,2.6302306707971423
CdpBVSkL2Pljj-yP0ihb_w,Thai Orchid Garden Restaurant,Phoenix,33.4927898356,-112.33256022299999,150,4.0,1.0,0.0,0.0,0.0,0.0,0.0,0.0,0.0,0.0,0.0,29,2.210279836368221
kHpXJ2vciumu2KhNHg0hYA,Majerle's Sports Grill,Phoenix,33.448465399999996,-112.07125740000001,228,3.5,1.0,0.0,0.0,1.0,1.0,0.0,0.0,0.0,0.0,0.0,30,2.051599208301134
raVyoZbWWuN7JcFUdT7k2g,Sochu House,Phoenix,33.47907,-112.073306,179,4.0,1.0,0.0,0.0,1.0,1.0,0.0,0.0,0.0,0.0,0.0,31,2.4141708439298797
VOh-vGJlUJnaAb3tgPreQg,AMC Arizona Center 24,Phoenix,33.453894,-112.06921899999999,139,3.0,0.0,0.0,0.0,0.0,0.0,0.0,0.0,0.0,1.0,0.0,32,2.0617191054532
v9u0NgjA4iQeKGevFnYSCA,Arizona Biltmore,Phoenix,33.516066200000004,-112.02956200000001,385,3.5,1.0,0.0,1.0,0.0,0.0,0.0,0.0,0.0,0.0,1.0,33,2.421768827771059
UE3AvVnaPEBPneVahYT2eA,The White Chocolate Grill,Phoenix,33.655566,-111.92641,698,4.0,1.0,0.0,0.0,0.0,0.0,0.0,0.0,0.0,0.0,0.0,34,2.4638453067742656
4qQVf2lt-47VcQ4v54PEXQ,Basil & Garlic Bistro,Phoenix,33.594737,-111.880444,200,4.5,1.0,0.0,0.0,0.0,0.0,0.0,0.0,0.0,0.0,0.0,35,2.697147241322704
1gRWCpwBh1pL5ByiAo8T1A,Al's Beef,Phoenix,33.619485,-111.898197,76,3.5,1.0,0.0,0.0,0.0,0.0,0.0,0.0,0.0,0.0,0.0,36,2.1212242124213403
AueEbb9kao4lt6CYt06hqw,Okra Cookhouse & Cocktails,Phoenix,33.522359,-112.0645588,176,4.0,1.0,0.0,0.0,1.0,1.0,0.0,0.0,0.0,0.0,0.0,37,2.611094827578845
lUG4i-s3zNFY1f6bEnTfqg,Snapdragon Salon,Phoenix,33.5090243,-112.0673841,210,4.5,0.0,0.0,1.0,0.0,0.0,0.0,0.0,0.0,0.0,0.0,38,2.9849498260239002
wghDrzcZ0VloAtaIZ7GEBg,Piestewa Peak,Phoenix,33.5427327031,-112.01547875700001,187,4.5,0.0,0.0,0.0,0.0,0.0,1.0,0.0,0.0,0.0,0.0,39,2.7573065823878946
0d6kx6Jlocw77y1J9nbqMA,Scratch Pastries & Bistro,Phoenix,33.495755800000005,-111.91591470000002,186,3.5,1.0,0.0,0.0,0.0,0.0,0.0,0.0,0.0,0.0,0.0,40,2.3040802792080997
M95OX2nED7rjPxOURJtOCg,Ladybug House of Sandwiches,Phoenix,33.4660663,-112.0582801,87,4.0,1.0,0.0,0.0,0.0,0.0,0.0,0.0,0.0,0.0,0.0,41,2.3254857621817755
-MKWJZnMjSit406AUKf7Pg,Barrelhouse American Kitchen & Cocktails,Phoenix,33.336012407300004,-111.859687015,172,4.0,1.0,0.0,0.0,0.0,0.0,0.0,0.0,0.0,0.0,0.0,42,2.5592858297245518
XxXmyN3tlroRQ1SOoSXHAA,Rosita's Fine Mexican Food,Phoenix,33.3626731,-111.87802450000001,80,3.5,1.0,0.0,0.0,0.0,0.0,0.0,0.0,0.0,0.0,0.0,43,2.174445670892563
5qsjQ2FiMrtXGTmkhCWalw,Easley's Fun Shop,Phoenix,33.465499,-112.08114199999999,88,4.0,0.0,1.0,1.0,0.0,0.0,0.0,0.0,0.0,0.0,0.0,44,2.6994100709881668
dEq4Yj50tWOSzxqXloahsw,Classic Italian Pizza,Phoenix,33.379603700000004,-111.92225790000002,110,4.0,1.0,0.0,0.0,0.0,0.0,0.0,0.0,0.0,0.0,0.0,45,2.3986733396549407
C8D_GU9cDDjbOJfCaGXxDQ,Culinary Dropout,Phoenix,33.5020064299,-111.928296379,997,4.0,1.0,0.0,0.0,1.0,1.0,0.0,0.0,0.0,1.0,0.0,46,2.314942217799175
EC7NrIHKk6i3US_XJlDWDA,Julio's Too,Phoenix,33.501960499999996,-111.92309240000002,121,4.0,1.0,0.0,0.0,0.0,0.0,0.0,0.0,0.0,0.0,0.0,47,2.18706043367254
LUDX--wfStrKavGyitk4nA,The Keg Steakhouse + Bar,Phoenix,33.675263742199995,-111.975617586,281,4.0,1.0,0.0,0.0,1.0,1.0,0.0,0.0,0.0,0.0,0.0,48,2.36503365214885
FJ4SYm6u4GbhkkXXnjYPcg,AMC Arrowhead 14,Phoenix,33.6423282454,-112.226142574,140,3.5,0.0,0.0,0.0,0.0,0.0,0.0,0.0,0.0,1.0,0.0,49,2.3980928886655772
ZINEfhpVrb0Uh6VbX9-sOQ,Changing Hands,Phoenix,33.509678778099996,-112.07871989799999,62,4.5,0.0,1.0,0.0,0.0,0.0,0.0,0.0,0.0,0.0,0.0,50,2.709755557292695
RVTxiiWQwmeSJonJgYwwWg,teres : A Nail Bar,Phoenix,33.495490000000004,-111.92748999999999,201,4.0,0.0,0.0,1.0,0.0,0.0,0.0,0.0,0.0,0.0,0.0,51,2.4916507908736056
vKKIO3Dc8m6i1C9UYwJzSQ,Kneaders Bakery & Cafe,Phoenix,33.2970579963,-111.74274232200001,114,3.0,1.0,0.0,0.0,0.0,0.0,0.0,0.0,0.0,0.0,0.0,52,1.8942561681014622
yfHYCkQaupRzWU8FIgxUPg,Star of India,Phoenix,33.3033358617,-111.99444119,133,4.0,1.0,0.0,0.0,0.0,0.0,0.0,0.0,0.0,0.0,0.0,53,2.53518205753167
0VOh4VIq13oFburRU9gddw,The Side Door Corner Store,Phoenix,33.4864,-111.9101646,97,4.0,1.0,0.0,0.0,1.0,1.0,0.0,0.0,0.0,0.0,0.0,54,2.5211991504105584
PNTyiqS7R-0c1ofxOfDijQ,Cafe Monarch,Phoenix,33.494225,-111.93146100000001,478,4.5,1.0,0.0,0.0,1.0,1.0,0.0,0.0,0.0,0.0,0.0,55,2.93901991920924
AZQKMMvX9m1-uTdLPMzK3g,Spokes On Southern,Phoenix,33.3930144,-111.91461709999999,224,4.0,1.0,0.0,0.0,1.0,1.0,0.0,0.0,0.0,0.0,0.0,56,2.2999223611248913
5L4XcFz1YKeurNGeMR-fsQ,Randy's Restaurant & Ice Cream,Phoenix,33.5097931,-111.91153130000001,190,4.0,1.0,0.0,0.0,0.0,0.0,0.0,0.0,0.0,0.0,0.0,57,2.457259168051557
7vFTldKs-b-wS5J56PGGew,Tao Garden,Phoenix,33.3362743,-111.8609236,86,3.5,1.0,0.0,0.0,0.0,0.0,0.0,0.0,0.0,0.0,0.0,58,2.206318180862563
JR2ma-JU1CO_xVD_p5-RPw,Joe's Crab Shack,Phoenix,33.3787501,-111.96636740000001,217,3.0,1.0,0.0,0.0,0.0,0.0,0.0,0.0,0.0,0.0,0.0,59,1.8693387149717589
2q2gGuigGrCFmx3juLAVww,Mika's Greek,Phoenix,33.3495575156,-111.949797459,101,4.0,1.0,0.0,0.0,0.0,0.0,0.0,0.0,0.0,0.0,0.0,60,2.573600634341133
2ktKjN5z8EcqmUv6EDiDgA,Costco,Phoenix,33.346882799999996,-111.9619117,91,4.0,0.0,1.0,0.0,0.0,0.0,0.0,1.0,0.0,0.0,0.0,61,2.439966158097396
biVQDp3K_vNP1eK5wGZOJg,Kabab Palace,Phoenix,33.3496649,-111.9475189,128,3.5,1.0,0.0,0.0,0.0,0.0,0.0,0.0,0.0,0.0,0.0,62,2.5777308921392197
umrDQGRNied77aVg29_fVw,Welcome Chicken + Donuts,Phoenix,33.4365376582,-112.048716904,382,4.0,1.0,0.0,0.0,0.0,0.0,0.0,0.0,1.0,0.0,0.0,63,2.530697603377366
YQFcxE9UXrKc-QuTUu7twQ,Loco Patron,Phoenix,33.4977693,-111.9264149,274,3.5,1.0,0.0,0.0,1.0,1.0,0.0,0.0,0.0,0.0,0.0,64,1.9878785017257892
DVvPQv1t08kusnnoMVhW-g,Giligins,Phoenix,33.498177,-111.92495900000002,210,3.0,0.0,0.0,0.0,1.0,1.0,0.0,0.0,0.0,0.0,0.0,65,2.063425713673072
b_1PW3gMqzHvkAFseap3yQ,Pussycat Lounge,Phoenix,33.501642499999996,-111.92238880000001,54,3.0,0.0,0.0,0.0,1.0,1.0,0.0,0.0,0.0,0.0,0.0,66,1.8451818562934983
5SEwzlWlrxSVyZx3IgXwLg,Marcella's Italian Kitchen,Phoenix,33.502594099999996,-111.92967649999999,58,3.0,1.0,0.0,0.0,0.0,0.0,0.0,0.0,0.0,0.0,0.0,67,2.2354002135066984
_98ytLdlPEDp0FTuO31R7Q,Harkins Theatres Arrowhead Fountains 18,Phoenix,33.6307755,-112.238377,69,4.0,0.0,0.0,0.0,0.0,0.0,0.0,0.0,0.0,1.0,0.0,68,2.4099311699311388
HhopVWTjghrRU2sWGBv-Rg,Some Burros,Phoenix,33.30317410000001,-111.7432094,98,2.5,1.0,0.0,0.0,0.0,0.0,0.0,0.0,0.0,0.0,0.0,69,1.8890443434480482
gA9hCYY7MYl9oZ3aym5dvw,Tokyo Lobby Sushi and Grill,Phoenix,33.638406700000004,-112.1837949,272,4.0,1.0,0.0,0.0,0.0,0.0,0.0,0.0,0.0,0.0,0.0,70,2.560898807816742
hTsZSiftorNUFb1VaHCHHg,Nook Kitchen,Phoenix,33.4948896858,-112.00297840399999,346,4.5,1.0,0.0,0.0,0.0,0.0,0.0,0.0,0.0,0.0,0.0,71,2.6948804125083443
swX3Vj3dQsz1YlCRmwNQEQ,Eddie V's Prime Seafood,Phoenix,33.6255468878,-111.923649947,363,4.0,1.0,0.0,0.0,1.0,1.0,0.0,0.0,0.0,1.0,0.0,72,2.6271000319723425
Wag4bnx38zJ4ihDn8-7--A,Handlebar-J,Phoenix,33.5831929,-111.9275447,102,3.5,1.0,0.0,0.0,1.0,1.0,0.0,0.0,0.0,0.0,0.0,73,2.212573097872099
Sxx0E2KvnNCSqlIhbD0l_g,US Egg,Phoenix,33.485965281300004,-111.926561894,341,4.0,1.0,0.0,0.0,0.0,0.0,0.0,0.0,0.0,0.0,0.0,74,2.4353483839050134
ng8vj7q4kFt7d4Ud4lBhHQ,Sushi Eye,Phoenix,33.3306902,-111.9785992,193,3.5,1.0,0.0,0.0,0.0,0.0,0.0,0.0,0.0,0.0,0.0,75,2.195005699572512
5pMNyj77S1P3rrT69y1pkQ,Joe's New York Pizza,Phoenix,33.500516,-111.923299,238,3.5,1.0,0.0,0.0,0.0,0.0,0.0,0.0,0.0,0.0,0.0,76,2.206533174135179
XJN3OhXLBDa8zAqdi21FFQ,D'Vine Bistro & Wine Bar,Phoenix,33.2476989,-111.8654753,143,3.5,1.0,0.0,0.0,1.0,1.0,0.0,0.0,0.0,1.0,0.0,77,2.3159840612264513
yjX5l0UGoFdR4t5q3i2MTQ,Bavarian Point Restaurant,Phoenix,33.4149445,-111.726882,101,3.0,1.0,0.0,0.0,0.0,0.0,0.0,0.0,0.0,0.0,0.0,78,1.9813924226165207
fS9a8AGrcwWPf_9vfn5wPQ,Angelina's Pho & Grill Bar,Phoenix,33.6400392682,-112.174073045,264,4.0,1.0,0.0,0.0,0.0,0.0,0.0,0.0,0.0,0.0,0.0,79,2.3110163763348543
pKiSzUlBBRNEdTML24piXA,Centurion,Phoenix,33.458871,-112.077177,211,4.0,1.0,0.0,0.0,0.0,0.0,0.0,0.0,0.0,0.0,0.0,80,2.568087201782939
RZWx7pIsINH6nVqW7ys9cg,Ezekiel's,Phoenix,33.3293584261,-111.97937283700001,159,4.5,1.0,0.0,0.0,0.0,0.0,0.0,0.0,0.0,0.0,0.0,81,2.585590642717479
IzdLLebxhDjnugxAMc-4EA,Sundrops Nail Spot,Phoenix,33.509004499999996,-111.99594479999999,106,3.5,0.0,0.0,1.0,0.0,0.0,0.0,0.0,0.0,0.0,0.0,82,2.197366001097792
8PBq-MHyLDrhkaTf72Foww,Dos Gringos,Phoenix,33.3441506,-111.96368000000001,145,3.0,1.0,0.0,0.0,1.0,1.0,0.0,0.0,0.0,0.0,0.0,83,1.8437131691796775
whAwdYVty-jSNRhrYT2zHA,Pappadeaux Seafood Kitchen,Phoenix,33.587765999999995,-112.115899,906,4.0,1.0,0.0,0.0,0.0,0.0,0.0,0.0,0.0,0.0,0.0,84,2.57450933004913
USbeHpw9-zMtGct92LtJYg,Venezia's New York Style Pizzeria,Phoenix,33.451295,-111.72046599999999,132,4.0,1.0,0.0,0.0,0.0,0.0,0.0,0.0,0.0,0.0,0.0,85,2.4974685840365964
9a3DrZvpYxVs3k_qwlCNSw,Cibo,Phoenix,33.45496,-112.079908,1457,4.5,1.0,0.0,0.0,0.0,0.0,0.0,0.0,0.0,0.0,0.0,86,2.622653728061738
JsUprRhyzQyukZmAhcOg0A,Brio Tuscan Grille,Phoenix,33.3084164925,-111.743233101,286,4.0,1.0,0.0,0.0,1.0,1.0,0.0,0.0,0.0,0.0,0.0,87,2.3725873395244736
Z2fCgJdvjhZVP34V86UKCg,Bosa Donuts,Phoenix,33.3142720175,-111.841024496,165,4.0,1.0,0.0,0.0,0.0,0.0,0.0,0.0,1.0,0.0,0.0,88,2.6070476210727884
iPPzDL_oY8SJCjmycuXcVg,buzzberry,Phoenix,33.523554,-111.89978400000001,202,3.5,1.0,0.0,0.0,0.0,0.0,0.0,0.0,1.0,0.0,0.0,89,2.206368698327427
l4OvtpJA2Vp01tmaXRsk2Q,Octane Raceway,Phoenix,33.5366069425,-111.88406563299999,110,4.0,0.0,0.0,0.0,0.0,0.0,1.0,0.0,0.0,0.0,0.0,90,2.443940646990873
ydhgMcBh4A_eihzEAg9LLQ,In-N-Out Burger,Phoenix,33.3204548,-111.9641591,123,4.0,1.0,0.0,0.0,0.0,0.0,0.0,0.0,0.0,0.0,0.0,91,2.4518011856516395
NWjJK9c5YOQSbMX_bw24sA,Crab & Mermaid,Phoenix,33.4974222,-111.92646640000001,137,3.5,1.0,0.0,0.0,1.0,1.0,0.0,0.0,0.0,0.0,0.0,92,2.0804517926393555
_6mvQX9x66oz046eS5ii8w,Juan's Authentic Mexican Food,Phoenix,33.4804917,-112.0490225,156,4.0,1.0,0.0,0.0,0.0,0.0,0.0,0.0,0.0,0.0,0.0,93,2.380151633247889
_IZyyv0dFfpIy_rI_-nwTQ,Osaka Japanese Steakhouse,Phoenix,33.3857159,-111.6860775,280,4.0,1.0,0.0,0.0,0.0,0.0,0.0,0.0,0.0,0.0,0.0,94,2.480579391864672
PuB-oSX_fMh0822kChScrA,Ninja Japanese Restaurant,Phoenix,33.339919300000005,-111.85953559999999,198,3.0,1.0,0.0,0.0,0.0,0.0,0.0,0.0,0.0,0.0,0.0,95,1.9057436751710057
2KWkeOk1KaH50Es_A-8cnA,Snooze an Am Eatery,Phoenix,33.355238,-111.79008400000001,400,4.0,1.0,0.0,0.0,0.0,0.0,0.0,0.0,0.0,0.0,0.0,96,2.2777115049596848
YgVC9NdMji-VV05w7-E1DQ,Chase Field,Phoenix,33.445362599999996,-112.06749609999999,482,4.0,0.0,0.0,0.0,0.0,0.0,1.0,0.0,0.0,1.0,0.0,97,2.4880985109973626
I-VD-o4JDGSG5GHQ2EbrVA,Smashburger,Phoenix,33.3779075,-111.92948100000001,185,3.0,1.0,0.0,0.0,0.0,0.0,0.0,0.0,0.0,0.0,0.0,98,2.0324781468587902
xC1-8kKTeLkF85GZ9IfVow,Papago Park,Phoenix,33.440288800000005,-111.93086059999999,105,4.0,0.0,0.0,0.0,0.0,0.0,1.0,0.0,0.0,0.0,0.0,99,2.5210940983450723
8un5h1h8NXs0hzeVraaPbA,Olive Garden Italian Restaurant,Phoenix,33.4873326,-111.9270572,96,3.5,1.0,0.0,0.0,1.0,1.0,0.0,0.0,0.0,0.0,0.0,100,1.8563349236893238
e9UsRb-fmza5ukU8Ftduew,Jasmine Tokyo,Phoenix,33.582398016999996,-111.92868457,319,3.5,1.0,0.0,0.0,1.0,1.0,0.0,0.0,0.0,0.0,0.0,101,2.3725269799392206
hINfDEJ2sAp19-Ebp8NoQQ,"Tea, Snow & Coffee",Phoenix,33.4133505,-111.8759922,131,4.0,0.0,0.0,0.0,0.0,0.0,0.0,0.0,1.0,0.0,0.0,102,2.5459794233243107
WBt2pa7k_K2LKW2OJuXG9Q,Arcadia Farms Cafe,Phoenix,33.493736,-111.929579,450,4.0,1.0,0.0,0.0,0.0,0.0,0.0,0.0,1.0,0.0,0.0,103,2.364012853518614
-ITj6Pu8Gdw8MmLf0XBEKQ,Sushi Station,Phoenix,33.6752320021,-111.979702925,288,4.0,1.0,0.0,0.0,0.0,0.0,0.0,0.0,0.0,0.0,0.0,104,2.253524428863155
rCJ6qFo_liwGPzbupkLhhQ,La Piñata,Phoenix,33.4870264,-112.10055890000001,135,4.0,1.0,0.0,0.0,0.0,0.0,0.0,0.0,0.0,0.0,0.0,105,2.4155507768569424
Fv3HvJPQYqfmniTgtIQJzA,The Coffee Shop,Phoenix,33.321663199999996,-111.7262523,424,4.0,1.0,0.0,0.0,0.0,0.0,0.0,0.0,1.0,0.0,0.0,106,2.574320426343843
tj3YzWsjMbPU_ivDkyOE3w,Scramble,Phoenix,33.5335199018,-111.926205579,342,4.0,1.0,0.0,0.0,0.0,0.0,0.0,0.0,0.0,0.0,0.0,107,2.3546379752545774
uJe6qjWPRMgR7QIyZ_zTwQ,Pinnacle Peak Patio,Phoenix,33.7273959088,-111.85555981,132,3.5,1.0,0.0,0.0,1.0,1.0,0.0,0.0,0.0,0.0,0.0,108,2.1258328856660857
r69MorklzaPdxGySgNA19g,Taylor's Cafe,Phoenix,33.5106537,-111.9866156,74,3.5,1.0,0.0,0.0,0.0,0.0,0.0,0.0,0.0,0.0,0.0,109,2.1533232677904595
ecThgc0csNnzXDw9kMojcQ,Gotham City Comics and Coffee,Phoenix,33.4154005,-111.833228,87,4.5,0.0,1.0,0.0,0.0,0.0,0.0,0.0,1.0,0.0,0.0,110,2.8669604486868483
6Cl15LapBVhw4ZfBIeVJJA,Rania's Kabob Grill,Phoenix,33.381279,-111.72416799999999,306,4.0,1.0,0.0,0.0,0.0,0.0,0.0,0.0,0.0,0.0,0.0,111,2.626091018511701
PbTh7aX0_yyaXFOXAlhI4A,The Turf Public House,Phoenix,33.4558709,-112.07228319999999,176,3.5,1.0,0.0,0.0,1.0,1.0,0.0,0.0,0.0,0.0,0.0,112,2.1500845472795684
1aVqiz43klXaFJUUx0H5fw,Dutch Bros Coffee,Phoenix,33.4860879291,-112.364484103,150,4.5,0.0,0.0,0.0,0.0,0.0,0.0,0.0,1.0,0.0,0.0,113,2.507072474286868
eBt4IVKfSuQ6BcBWalDiTQ,Primp and Blow - A Blow Dry Bar,Phoenix,33.5004616365,-111.928524458,91,3.0,0.0,0.0,1.0,0.0,0.0,0.0,0.0,0.0,0.0,0.0,114,1.753438236034623
TubbskG3TSU9TpgFFH2How,Wildflower Bread Company,Phoenix,33.667517600000004,-112.12038590000002,163,4.0,1.0,0.0,0.0,0.0,0.0,0.0,0.0,0.0,0.0,0.0,115,2.4294012187392364
K1eUYbkKkgOld0APMlsGlw,Corner Bakery Cafe,Phoenix,33.635316100000004,-112.2345368,101,3.0,1.0,0.0,0.0,0.0,0.0,0.0,0.0,0.0,0.0,0.0,116,1.9040810605347067
Kk2Zd-18L9zu5dk7xzQBNw,J. Alexander's,Phoenix,33.5271966,-111.92591090000002,89,3.5,1.0,0.0,0.0,0.0,0.0,0.0,0.0,0.0,0.0,0.0,117,2.215186512132835
Cdywb13_07M1_g3U85VKTA,Hong Kong Asian Diner,Phoenix,33.32217891,-111.929328181,85,3.5,1.0,0.0,0.0,0.0,0.0,0.0,0.0,0.0,0.0,0.0,118,2.249454067384348
s2gjJKptpkmwSXYRtfptZQ,Whiskey Rose Bar & Grill,Phoenix,33.5337789,-112.261797,174,3.5,1.0,0.0,0.0,1.0,1.0,0.0,0.0,0.0,0.0,0.0,119,2.2923836970838996
FDEm-c3NAXnTVtl-hgzAhA,Heart Attack Grill,Phoenix,33.3047634,-111.948079,103,3.0,1.0,0.0,0.0,0.0,0.0,0.0,0.0,0.0,0.0,0.0,120,1.613213134995868
bKxKPGmkwH-Q-GSbt7chNA,Stingray Sushi,Phoenix,33.498661,-111.926367,259,3.0,1.0,0.0,0.0,0.0,0.0,0.0,0.0,0.0,0.0,0.0,121,2.0910829931719848
-RYIKWBSTaJ21B2UMyzI-Q,Mellow Mushroom,Phoenix,33.317959,-111.975646,220,3.0,1.0,0.0,0.0,1.0,1.0,0.0,0.0,0.0,0.0,0.0,122,1.9999290018592524
UddEGVfbnmXxK6t2mXyicQ,Deer Valley Airport Restaurant,Phoenix,33.6855035583,-112.082909766,100,3.0,1.0,0.0,0.0,0.0,0.0,0.0,0.0,0.0,0.0,0.0,123,1.8182491605645759
lgWB0yGXpZvupYREWxtV7g,Pane Bianco,Phoenix,33.5006213,-112.07431129999999,462,4.0,1.0,0.0,0.0,0.0,0.0,0.0,0.0,0.0,0.0,0.0,124,2.61999305329991
KE1hiwKmhQPnhtBg48vFtw,LA Fitness,Phoenix,33.5074129,-112.03697340000002,127,2.5,0.0,0.0,0.0,0.0,0.0,1.0,0.0,0.0,0.0,0.0,125,1.6471861706228008
75u8X_saAIETRHgpECi8YA,Urban Taco,Phoenix,33.5318417,-112.04798159999999,180,3.5,1.0,0.0,0.0,0.0,0.0,0.0,0.0,0.0,0.0,0.0,126,2.2430681582727128
atzWErG0uIvjpAvXhjPOIg,Pomeroy's,Phoenix,33.518431400000004,-112.0641262,51,3.5,0.0,0.0,0.0,1.0,1.0,0.0,0.0,0.0,0.0,0.0,127,2.2513515259902146
hxe8xidZ04BfdqQ-oUADiQ,Charleston's,Phoenix,33.321281,-111.97080600000001,170,4.0,1.0,0.0,0.0,0.0,0.0,0.0,0.0,0.0,0.0,0.0,128,2.466117035105062
AkpuhGyLAxhD_sLMQv3kOg,Kai,Phoenix,33.2678103,-111.97847949999999,169,4.5,1.0,0.0,0.0,0.0,0.0,0.0,0.0,0.0,0.0,0.0,129,3.0517211372689554
AKPLL7N4yTidQF7xY8kneg,UltraStar Cinemas,Phoenix,33.541488199999996,-111.88543529999998,120,3.5,0.0,0.0,0.0,0.0,0.0,0.0,0.0,0.0,1.0,0.0,130,2.361431934133817
LxNoSrtJYB7HvP5I-8p-Ow,Andrew's BBQ,Phoenix,33.364913859299996,-111.930521612,130,4.0,1.0,0.0,0.0,0.0,0.0,0.0,0.0,0.0,0.0,0.0,131,2.3677609818290195
D3dAx-QW_uuClz4MambeHA,La Grande Orange Grocery,Phoenix,33.5023126257,-111.995752167,693,4.0,1.0,0.0,0.0,0.0,0.0,0.0,0.0,1.0,0.0,0.0,132,2.503954857541874
aTd8upPhfxefiecvTbtUMg,Top Design Nails,Phoenix,33.482865999999994,-112.0480133,123,3.5,0.0,0.0,1.0,0.0,0.0,0.0,0.0,0.0,0.0,0.0,133,2.2494276626357346
OZqAZkjhV_nyHsbnKaD1WQ,Christo's Ristorante,Phoenix,33.529845,-112.064704,133,4.0,1.0,0.0,0.0,1.0,1.0,0.0,0.0,0.0,0.0,0.0,134,2.4943601036501297
LmjBZpQU7nJTIJZYRVO7Kg,The Counter Phoenix,Phoenix,33.4488663,-112.0738152,168,3.5,1.0,0.0,0.0,0.0,0.0,0.0,0.0,0.0,0.0,0.0,135,2.263867193468734
nnB9aw5tLaYZHgAvwzpPOg,Irish Wolfhound,Phoenix,33.636823765900004,-112.35901329100001,227,4.0,1.0,0.0,0.0,0.0,0.0,0.0,0.0,0.0,0.0,0.0,136,2.211713358929524
EOUDjT34xPixuxEcEr7sNA,92nd Street Cafe,Phoenix,33.5837032,-111.88373929999999,108,3.0,1.0,0.0,0.0,0.0,0.0,0.0,0.0,0.0,0.0,0.0,137,1.8335069430820246
WOz66UuVsfc2K9GxzfDnGg,America's Taco Shop,Phoenix,33.470887,-112.064765,379,3.5,1.0,0.0,0.0,0.0,0.0,0.0,0.0,0.0,0.0,0.0,138,2.3159011632158184
YUFxSG6idHePsxOmnSHtpQ,Mimis Cafe,Phoenix,33.3063855,-111.8931217,142,3.0,1.0,0.0,0.0,0.0,0.0,0.0,0.0,0.0,0.0,0.0,139,2.0726593019492654
K64Uw3a2Enh2MznpwRHWKQ,Razz's Restaurant & Catering,Phoenix,33.580295,-111.925702,144,4.5,1.0,0.0,0.0,0.0,0.0,0.0,0.0,0.0,0.0,0.0,140,2.6758389171358963
GlwOGCjSzts7AnbK9gqmng,Cheddar's Scratch Kitchen,Phoenix,33.3064492818,-111.88693858,344,3.5,1.0,0.0,0.0,0.0,0.0,0.0,0.0,0.0,0.0,0.0,141,2.0555625847034347
Bkkwt8E9MHvgCHn4lUFtow,Roy's Restaurant,Phoenix,33.683460902600004,-111.96577904799999,246,3.5,1.0,0.0,0.0,0.0,0.0,0.0,0.0,0.0,0.0,0.0,142,2.487374673359561
s1b39BK1WFRY9200fwFCmg,Wildflower Bread Company,Phoenix,33.3019210712,-111.89703606100001,117,4.0,1.0,0.0,0.0,0.0,0.0,0.0,0.0,0.0,0.0,0.0,143,2.5286435803579566
wyFV6UN--hH_ifbvdsjSkQ,Fleming's Prime Steakhouse & Wine Bar,Phoenix,33.5302696775,-111.926350594,274,4.0,1.0,0.0,0.0,1.0,1.0,0.0,0.0,0.0,0.0,0.0,144,2.55093850134676
WBxR9IC6E9-4szNzq7_Y3Q,Lemongrass Thai Cafe,Phoenix,33.4078244,-111.9507664,88,3.5,1.0,0.0,0.0,0.0,0.0,0.0,0.0,0.0,0.0,0.0,145,2.2793680943935737
4aF5GfnVkJPj9IwJ2yxPtQ,The Tamale Store,Phoenix,33.6059421,-112.03696699999999,111,4.5,1.0,0.0,0.0,0.0,0.0,0.0,0.0,0.0,0.0,0.0,146,2.6460550816168733
Kq8v2R5g9cpQF7QRSlQOMw,Capriotti's Sandwich Shop,Phoenix,33.4942993,-111.9259041,113,3.5,1.0,0.0,0.0,0.0,0.0,0.0,0.0,0.0,0.0,0.0,147,2.1328577752986573
RtnTbhWYw4QjKhoTBV37OA,Yard House,Phoenix,33.534088,-112.2612324,653,4.0,1.0,0.0,0.0,1.0,1.0,0.0,0.0,0.0,0.0,0.0,148,2.352490323599963
QsMR_Fp9YRtDegThsOgFLA,Sens Asian Tapas & Sake Bar,Phoenix,33.455863,-112.072167,232,4.0,1.0,0.0,0.0,0.0,0.0,0.0,0.0,0.0,0.0,0.0,149,2.4437157884279834
Hliq9wrI1BcR-xcG_C9_Qg,Texas Roadhouse,Phoenix,33.4673054,-112.22111629999999,116,3.5,1.0,0.0,0.0,0.0,0.0,0.0,0.0,0.0,0.0,0.0,150,2.0500085061755775
8796vXaydw2aY_zER0n9uA,Cornish Pasty Company,Phoenix,33.492422999999995,-111.93073400000002,438,4.5,1.0,0.0,0.0,1.0,1.0,0.0,0.0,0.0,0.0,0.0,151,2.6830737603441523
ePt0qmZgU-fjqMoM1M2U3Q,Tottie's Asian Fusion,Phoenix,33.4796324,-111.91087809999999,286,4.0,1.0,0.0,0.0,0.0,0.0,0.0,0.0,0.0,0.0,0.0,152,2.3696172228317547
ErdKzeWj1B3YrpAH1dh_aw,Firehouse,Phoenix,33.4987921,-111.9246237,90,3.0,0.0,0.0,0.0,1.0,1.0,0.0,0.0,0.0,0.0,0.0,153,2.009962496973649
6AgvdkMHPvAGpxs7gdx38Q,Public House Garage,Phoenix,33.3309021,-111.9785499,101,3.5,1.0,0.0,0.0,1.0,1.0,0.0,0.0,0.0,0.0,0.0,154,2.01202591716858
1VDP92FU2p8AqJw9vU11sw,Lakeside Bar & Grill,Phoenix,33.7139576,-112.2749132,135,3.5,1.0,0.0,0.0,0.0,0.0,0.0,0.0,0.0,0.0,0.0,155,1.7898455715767054
LzF235KwLnVPDfSqdeZi-A,The Original Gyros Express,Phoenix,33.583141999999995,-111.926732,101,4.0,1.0,0.0,0.0,0.0,0.0,0.0,0.0,0.0,0.0,0.0,156,2.3460450830984336
wSpUTl9Bho2WRo9C5p_-Pg,Sauce Pizza & Wine,Phoenix,33.2612195,-111.8848787,108,3.5,1.0,0.0,0.0,1.0,1.0,0.0,0.0,0.0,0.0,0.0,157,2.290900072437587
82I9SSilxh3zL8F1UQ45Xw,Uncle Bear's Brewery,Phoenix,33.317170576,-111.97650821100001,246,3.5,1.0,0.0,0.0,1.0,1.0,0.0,0.0,0.0,0.0,0.0,158,2.152395311321642
d9wSnfW2kaJR-_auyK9G4A,Heard Museum,Phoenix,33.472473699999995,-112.07220090000001,136,4.0,0.0,0.0,0.0,0.0,0.0,0.0,0.0,0.0,1.0,0.0,159,2.574512143195571
WCUuQMK_W4hMU9dQWjCl0Q,Phoenix Convention Center,Phoenix,33.4500609,-112.0705878,89,3.5,0.0,0.0,0.0,0.0,0.0,0.0,0.0,0.0,1.0,0.0,160,2.3597330241227463
DP_RN_0ks1ZYFzLsWg6Izw,Bloom,Phoenix,33.56638220000001,-111.92558100000001,75,4.0,1.0,0.0,0.0,0.0,0.0,0.0,0.0,0.0,0.0,0.0,161,2.2459757972378442
A6nY4SCrMuLPtlbq-EKnfA,The Living Room,Phoenix,33.2611752,-111.88407250000002,275,3.5,1.0,0.0,0.0,1.0,1.0,0.0,0.0,0.0,0.0,0.0,162,2.356217516397621
s_7ALFRcm-tOYM0oH9kaWw,Midwestern Meats,Phoenix,33.416004,-111.73825749999999,104,3.5,1.0,0.0,0.0,0.0,0.0,0.0,0.0,0.0,0.0,0.0,163,2.470403005820453
XpyYSWF-8xi_aZ67RUuk2Q,El Encanto DOS,Phoenix,33.8000531,-112.05858,151,3.0,1.0,0.0,0.0,0.0,0.0,0.0,0.0,0.0,0.0,0.0,164,1.9032557438111746
Jd2NUZeVeyWi1tTNKXMt1Q,Sí Señor Restaurant,Phoenix,33.3136751,-111.8596581,314,4.0,1.0,0.0,0.0,0.0,0.0,0.0,0.0,0.0,0.0,0.0,165,2.3257983004624796
IdCOpMsZ67g-oQZLgAsnOA,Desert Botanical Garden,Phoenix,33.4620773,-111.94509779999998,642,4.5,0.0,0.0,0.0,1.0,0.0,1.0,0.0,0.0,1.0,0.0,166,2.7259929538450587
xpYRWIoEIKyK2K58_rR0Nw,Golfland Sunsplash,Phoenix,33.3877745,-111.8363111,136,3.5,0.0,0.0,0.0,0.0,0.0,1.0,0.0,0.0,0.0,0.0,167,2.157283561801326
v4qyBRpTBvOO55M4IAqNNg,Tomo Japanese Cuisine,Phoenix,33.463543,-112.34187800000001,293,3.5,1.0,0.0,0.0,0.0,0.0,0.0,0.0,0.0,0.0,0.0,168,2.25579608309042
80H8EnyShhq6_ZENH7aV3A,Thai Chili,Phoenix,33.3776857,-111.7528824,373,4.0,1.0,0.0,0.0,0.0,0.0,0.0,0.0,0.0,0.0,0.0,169,2.5265083921922953
gVgSl9anfzYn8dMdmmFNsg,"Stand-up, Scottsdale! Comedy Club",Phoenix,33.510830199999994,-111.9256584,385,4.0,0.0,0.0,0.0,1.0,0.0,0.0,0.0,0.0,1.0,0.0,170,2.4756014794465457
jIzygnVmajEXYmfsBNY_Gw,Most Wanted Taco Shop,Phoenix,33.5759159193,-112.06605546600001,575,4.5,1.0,0.0,0.0,0.0,0.0,0.0,0.0,0.0,0.0,0.0,171,2.7577926247088573
D4BWyStFZzA7k8hqDmnyFw,Koreatown,Phoenix,33.4082035,-111.8712822,181,4.0,1.0,0.0,0.0,0.0,0.0,0.0,0.0,0.0,0.0,0.0,172,2.6901848515095566
I2ZtsGibZL0FX4qha0Ptjw,Smashburger,Phoenix,33.464148,-112.27319779999999,182,3.5,1.0,0.0,0.0,0.0,0.0,0.0,0.0,0.0,0.0,0.0,173,2.2459891108502323
_YHMJ_bFgSoZbiZ6MDf2kw,Starbucks,Phoenix,33.5234248,-112.04711019999999,73,3.5,0.0,0.0,0.0,0.0,0.0,0.0,0.0,1.0,0.0,0.0,174,2.335187847116259
K-uQkfSUTwu5LIwPB4b_vg,The Mission,Phoenix,33.492287,-111.924273,1402,4.0,1.0,0.0,0.0,1.0,1.0,0.0,0.0,0.0,0.0,0.0,175,2.573622158953614
jcw_vtqfZSTLP15DJmvfIA,Melrose Kitchen,Phoenix,33.4987930208,-112.083130404,142,3.5,1.0,0.0,0.0,0.0,0.0,0.0,0.0,0.0,0.0,0.0,176,2.267773631416677
yRvmDKX-Ocgd8zq_iMgujA,Lustre Bar,Phoenix,33.4474723,-112.0732602,180,4.0,1.0,0.0,0.0,1.0,1.0,0.0,0.0,0.0,0.0,0.0,177,2.386860215915738
muefnimyq_3KIdEouJFvrA,Sir Veza's Taco Garage,Phoenix,33.300381248200004,-111.898431815,155,3.5,1.0,0.0,0.0,0.0,0.0,0.0,0.0,0.0,0.0,0.0,178,2.177138033469213
BncSpY3IPix5s-4SOHCtLQ,Blue Wasabi Sushi & Martini Bar,Phoenix,33.3079837358,-111.74430125399999,236,3.5,1.0,0.0,0.0,0.0,0.0,0.0,0.0,0.0,0.0,0.0,179,2.0611653463665345
v0bL0-frMFrvHz-5OgUczw,Raising Cane's,Phoenix,33.379381,-111.806728,148,3.5,1.0,0.0,0.0,0.0,0.0,0.0,0.0,0.0,0.0,0.0,180,2.2480697944082304
kAiD3y_JOdOhuVXFkxzzUg,Jump Street,Phoenix,33.637399200000004,-112.1807815,79,3.0,0.0,0.0,0.0,0.0,0.0,1.0,0.0,0.0,0.0,0.0,181,2.0932131682800197
PlTdQdCWu2_hjbSuenB3pg,PHO 43,Phoenix,33.479463800000005,-112.1521331,333,4.5,1.0,0.0,0.0,0.0,0.0,0.0,0.0,0.0,0.0,0.0,182,2.777075548825211
kaQngr_Bykn49-FiM8W5xg,Red Lobster,Phoenix,33.6377085395,-112.229440065,80,3.0,1.0,0.0,0.0,0.0,0.0,0.0,0.0,0.0,0.0,0.0,183,2.116568151849381
tCkd8eAx2mR0oioQcqkxPw,Mucho Macho Taco,Phoenix,33.5163421,-112.0822543,157,4.0,1.0,0.0,0.0,0.0,0.0,0.0,0.0,0.0,0.0,0.0,184,2.480029639408438
rBQ-xYc0GFAV2hqYKTQe6w,Mad Dog Saloon,Phoenix,33.3815815,-111.80705379999999,118,3.0,1.0,0.0,0.0,1.0,1.0,0.0,0.0,0.0,0.0,0.0,185,1.9220364157498262
CElwRv4CtK56NljAuCwepw,Babbo Italian Eatery,Phoenix,33.537514,-112.047195,232,4.0,1.0,0.0,0.0,0.0,0.0,0.0,0.0,0.0,0.0,0.0,186,2.5085102239708625
hjgr1NJPgPjEUiUn7Ejn2A,The Phoenician,Phoenix,33.501957399999995,-111.9520128,355,4.0,0.0,0.0,0.0,0.0,0.0,0.0,0.0,0.0,0.0,1.0,187,2.5751259656108854
tIrzcjC5_oBpY6R0G64z5g,Modern Steak,Phoenix,33.5023225,-111.92879860000001,235,4.0,1.0,0.0,0.0,0.0,0.0,0.0,0.0,0.0,0.0,0.0,188,2.4640278045073516
fyJAqmweGm8VXnpU4CWGNw,French Grocery,Phoenix,33.516464,-112.08233590000002,217,4.0,1.0,0.0,0.0,1.0,1.0,0.0,0.0,1.0,0.0,0.0,189,2.3332256353701424
Xg5qEQiB-7L6kGJ5F4K3bQ,Little Miss BBQ,Phoenix,33.421587,-111.989088,1083,5.0,1.0,0.0,0.0,0.0,0.0,0.0,0.0,0.0,0.0,0.0,190,2.948569546485274
hAo9tNm7VF4bUKTq27jGdw,Phoenix-Mesa Gateway Airport,Phoenix,33.307161,-111.6689463,117,3.5,0.0,0.0,0.0,0.0,0.0,0.0,0.0,0.0,0.0,1.0,191,2.36465270471101
aNYunG3j5zNJ4F0dQcZMyQ,Tomaso's,Phoenix,33.509787,-112.011949,122,4.0,1.0,0.0,0.0,0.0,0.0,0.0,0.0,0.0,0.0,0.0,192,2.3617833892440108
Vxv2scHFtClsWGuA7jQG-g,The Grilled Cheese Truck,Phoenix,33.4483771,-112.07403729999999,79,3.0,1.0,0.0,0.0,0.0,0.0,0.0,0.0,0.0,0.0,0.0,193,1.9928243168793858
sk2L4KcJbkkF6eHfjitGpg,Big Earl's BBQ,Phoenix,33.493764,-111.925767,120,3.0,1.0,0.0,0.0,0.0,0.0,0.0,0.0,0.0,0.0,0.0,194,1.9610950627493746
8GRlTN7cdWR5mz38HySZzw,Cafe Carumba,Phoenix,33.494967800000005,-111.9241443,63,3.5,1.0,0.0,0.0,0.0,0.0,0.0,0.0,0.0,0.0,0.0,195,2.358557222465893
yvJqxVTO_qwRGLMtUrqzQw,Barro's Pizza,Phoenix,33.611407799999995,-112.1106287,78,4.0,1.0,0.0,0.0,0.0,0.0,0.0,0.0,0.0,0.0,0.0,196,2.4537002297657313
D1DqdTfH5KzW1fiatArgig,Fry's Food & Drug,Phoenix,33.5799905,-111.88928500000002,58,4.0,0.0,1.0,0.0,0.0,0.0,0.0,0.0,0.0,0.0,0.0,197,2.5927176038554944
MmQsPiVSN08WtmlsC_ZSVA,Brushfire Tacos Y Tapas,Phoenix,33.6098633,-112.2396795,218,3.5,1.0,0.0,0.0,0.0,0.0,0.0,0.0,0.0,0.0,0.0,198,2.095329649149465
s_466owgNXqmQRuSluHHEQ,W Scottsdale,Phoenix,33.501546999999995,-111.92414699999999,309,3.0,0.0,0.0,0.0,0.0,0.0,0.0,0.0,0.0,0.0,1.0,199,2.026458391281356
wB2mrl_xHyj55UObucaVRA,Ollie Vaughn's,Phoenix,33.4659576,-112.0487597,164,4.5,1.0,0.0,0.0,0.0,0.0,0.0,0.0,1.0,0.0,0.0,200,2.699654959559124
xyMZdF9Xh9N6il831_Czsg,La Piccola Cucina,Phoenix,33.472674,-112.064752,113,3.5,1.0,0.0,0.0,0.0,0.0,0.0,0.0,0.0,0.0,0.0,201,2.1699037701917634
SdGgFPQrIzFlsrcWQ8MKMA,Tom's Tavern,Phoenix,33.448424816999996,-112.07480205200001,91,3.0,1.0,0.0,0.0,0.0,0.0,0.0,0.0,0.0,0.0,0.0,202,1.954718979183196
ARWLV46iIa3Dvt1y8-SPpA,Ristorante Giuseppe,Phoenix,33.6098977177,-111.92724209299999,218,4.0,1.0,0.0,0.0,0.0,0.0,0.0,0.0,0.0,0.0,0.0,203,2.599353132764536
9UvteZaWHpBbqrn5lv1uUw,Zipps Sports Grill,Phoenix,33.6622619241,-112.18693204,211,3.0,0.0,0.0,0.0,1.0,1.0,0.0,0.0,0.0,0.0,0.0,204,1.9973183991666774
GJTQ0dgQ2BTkbRw2jLE0Fw,Tandoori Times 2 Indian Bistro,Phoenix,33.6393732,-112.17995400000001,191,3.5,1.0,0.0,0.0,0.0,0.0,0.0,0.0,0.0,0.0,0.0,205,2.3697742030870983
sAEFh7e7fY-W2gMWSbIAWQ,MAD Greens - North Scottsdale,Phoenix,33.617584,-111.92624520000001,111,4.0,1.0,0.0,0.0,0.0,0.0,0.0,0.0,0.0,0.0,0.0,206,2.4821304864661635
x7RRLRKyKdME9X3GuR5-5w,Macayo's Mexican Kitchen,Phoenix,33.638270500000004,-112.39544029999999,143,2.5,1.0,0.0,0.0,0.0,0.0,0.0,0.0,0.0,0.0,0.0,207,1.8493672300775783
n2tiSHECXkFv47aIkxvSDA,Greektown,Phoenix,33.5617148,-112.0649024,215,4.5,1.0,0.0,0.0,0.0,0.0,0.0,0.0,0.0,0.0,0.0,208,2.521535832825206
QYIhMNwxXejDoCr-F1BxDg,Thai Basil,Phoenix,33.4215393,-111.9447821,326,4.0,1.0,0.0,0.0,0.0,0.0,0.0,0.0,0.0,0.0,0.0,209,2.4487865452730033
W2CzAePJakvARgoQuohbOA,In-N-Out Burger,Phoenix,33.434903000000006,-111.9254848,314,4.5,1.0,0.0,0.0,0.0,0.0,0.0,0.0,0.0,0.0,0.0,210,2.4936648609268564
DKusRJUxgsye1cdrlGgQOg,Udupi,Phoenix,33.448088748800004,-111.926883366,231,4.0,1.0,0.0,0.0,0.0,0.0,0.0,0.0,0.0,0.0,0.0,211,2.346690251071269
0pazeZax1Nt9cn0U_8aSUQ,Mint Thai Cafe,Phoenix,33.3702841,-111.7894312,138,4.0,1.0,0.0,0.0,0.0,0.0,0.0,0.0,0.0,0.0,0.0,212,2.235108349360999
lwpQQflP1CGJPV7QLybzOg,Upper Crust Pizza Patio & Wine Bar,Phoenix,33.6710684743,-112.03018963299999,324,3.5,1.0,0.0,0.0,1.0,1.0,0.0,0.0,0.0,0.0,0.0,213,2.3406386141282094
ibkwcLZwaJ1pnPJVaI_-uA,Swaddee Thai Cuisine,Phoenix,33.3193026,-111.9294581,146,4.0,1.0,0.0,0.0,0.0,0.0,0.0,0.0,0.0,0.0,0.0,214,2.260237930195239
-FLnsWAa4AGEW4NgE8Fqew,Breakfast Club - Scottsdale,Phoenix,33.5000439702,-111.926333031,750,4.0,1.0,0.0,0.0,0.0,0.0,0.0,0.0,1.0,0.0,0.0,215,2.272266774869419
qxlZ-hy9MIses8t65uDkkA,The Saguaro Scottsdale,Phoenix,33.494121299999996,-111.92276159999999,238,3.5,0.0,0.0,0.0,0.0,0.0,0.0,0.0,0.0,0.0,1.0,216,2.2841109087195894
AWJhMTYsIYzCIYAIUA-waA,Romano's Macaroni Grill,Phoenix,33.6758979043,-111.974707449,97,2.5,1.0,0.0,0.0,0.0,0.0,0.0,0.0,0.0,0.0,0.0,217,1.735176232725892
tQm5R5UsWBzxsOGLPjfLJQ,Big Eye Sushi Bar,Phoenix,33.612796582,-111.864413023,142,3.5,1.0,0.0,0.0,0.0,0.0,0.0,0.0,0.0,0.0,0.0,218,1.980790882499881
cTZmf7B-4yciMc1WKiCVOA,Welcome Diner,Phoenix,33.458842100000005,-112.06099750000001,622,4.5,1.0,0.0,0.0,1.0,1.0,0.0,0.0,0.0,0.0,0.0,219,2.7409317442273404
ctzH0uqGz6q_o2nuCrAUvA,Sushi J,Phoenix,33.499145899999995,-111.9180814,208,4.5,1.0,0.0,0.0,0.0,0.0,0.0,0.0,0.0,0.0,0.0,220,2.6919326653048308
g3w01guDiTLszguA3vUrSg,Shabu Fondue,Phoenix,33.5515412417,-112.057968678,117,4.0,1.0,0.0,0.0,0.0,0.0,0.0,0.0,0.0,0.0,0.0,221,2.5967057303967653
tovUJgSCxi2JfUtP9eNQcA,Barro's Pizza,Phoenix,33.6233792,-112.3917561,113,3.5,1.0,0.0,0.0,0.0,0.0,0.0,0.0,0.0,0.0,0.0,222,2.1264642183225986
bk4FIHt8ODRBPfqL4Fd2aQ,Indulge Burgers & More,Phoenix,33.5808348,-111.9268582,241,3.5,1.0,0.0,0.0,0.0,0.0,0.0,0.0,0.0,0.0,0.0,223,2.227088916485545
T2XdzAcj0M_kBD9_BHfZlw,Let It Roll Bowl & Entertainment,Phoenix,33.566887200000004,-112.0557173,82,4.0,0.0,0.0,0.0,0.0,0.0,1.0,0.0,0.0,1.0,0.0,224,2.3343064336180808
qX116WMOppAblGKxoQwlYA,Tempe Improv,Phoenix,33.4224198637,-111.92542769200001,256,3.0,0.0,0.0,0.0,1.0,0.0,0.0,0.0,0.0,1.0,0.0,225,2.232676081062586
g5HUA031z0xoNNZqMnGeYw,Which Wich,Phoenix,33.5349355103,-112.261913416,103,3.5,1.0,0.0,0.0,0.0,0.0,0.0,0.0,0.0,0.0,0.0,226,2.3151049469685545
WVCSiyXjEORiWEet8asURA,Guedo's Cantina Grille,Phoenix,33.305909,-111.84053899999999,112,3.5,1.0,0.0,0.0,0.0,0.0,0.0,0.0,0.0,0.0,0.0,227,2.07326353503622
C2BR0TjNacoNzItPLUHTAA,Coconut's Fish Cafe,Phoenix,33.6377041,-111.9263285,586,4.5,1.0,0.0,0.0,0.0,0.0,0.0,0.0,0.0,0.0,0.0,228,2.6020990698659663
aY-lZvoTHAFl9k6dcfcAxQ,Chen's Chinese Bistro,Phoenix,33.3003980129,-111.742661929,125,4.0,1.0,0.0,0.0,0.0,0.0,0.0,0.0,0.0,0.0,0.0,229,2.3860354104189936
YTbKmjGTdn4YzoJXTC1u7g,FlipSide Entertainment,Phoenix,33.2621822,-111.75699640000002,107,3.5,1.0,0.0,0.0,0.0,0.0,1.0,0.0,0.0,1.0,0.0,230,2.29067537040831
uxSL4FHWiO-fr2iae_d3Bw,P.F. Chang's,Phoenix,33.4638416136,-112.37479669999999,96,3.0,1.0,0.0,0.0,0.0,0.0,0.0,0.0,0.0,0.0,0.0,231,2.1667298875491436
tnG4_L5bZiffTbaFru9EBg,Princess Mediterranean Market & Deli,Phoenix,33.407996999999995,-111.88789799999999,241,4.5,1.0,0.0,0.0,0.0,0.0,0.0,0.0,0.0,0.0,0.0,232,2.7286283724200313
oz7PaA6zFtdi2nUxIYdlMg,Life Time Athletic,Phoenix,33.652535,-111.93321100000001,135,3.5,0.0,0.0,1.0,0.0,0.0,1.0,0.0,0.0,0.0,0.0,233,2.3549835291022028
yxJcVTwvHjuVtOKA3FCyYA,Cyprus Grill,Phoenix,33.2617999,-111.8602743,137,4.0,1.0,0.0,0.0,0.0,0.0,0.0,0.0,0.0,0.0,0.0,234,2.4700673446755053
NWlNMG_eBIvDjCcHK46eDQ,The Haymaker Restaurant,Phoenix,33.640232,-111.979545,206,3.5,1.0,0.0,0.0,1.0,1.0,0.0,0.0,0.0,0.0,0.0,235,2.274380722097571
-050d_XIor1NpCuWkbIVaQ,Matt's Big Breakfast,Phoenix,33.456696057399995,-112.072327137,702,4.0,1.0,0.0,0.0,0.0,0.0,0.0,0.0,0.0,0.0,0.0,236,2.4664947329326083
3rWRNL9sFX4YiWPqaUvUzw,Hard Rock Cafe,Phoenix,33.4468850573,-112.071075886,146,3.0,1.0,0.0,0.0,1.0,0.0,0.0,0.0,0.0,1.0,0.0,237,1.7678718386206933
oj8qk3W7O9oq15VIs-vYJQ,Lon's At the Hermosa,Phoenix,33.518225,-112.004898,296,4.0,1.0,0.0,0.0,0.0,0.0,0.0,0.0,0.0,0.0,0.0,238,2.5451998253757253
HxWDCU-kKido3ErM31msGQ,First Watch,Phoenix,33.635340941799996,-111.92254378,195,4.0,1.0,0.0,0.0,0.0,0.0,0.0,0.0,0.0,0.0,0.0,239,2.337966764665509
RZFryvOkznd4jtpj8PbSzg,Sushi Style,Phoenix,33.6384071615,-112.06752002,205,4.0,1.0,0.0,0.0,0.0,0.0,0.0,0.0,0.0,0.0,0.0,240,2.1800960963766953
JuPngDeQHVgBLH-VIET_ag,Native Grill & Wings,Phoenix,33.5405604,-112.26329950000002,124,2.0,1.0,0.0,0.0,1.0,1.0,0.0,0.0,0.0,0.0,0.0,241,1.661918136125492
F-PmkzyN80fVcNMN8Z2aiw,Z'Tejas Southwestern Grill,Phoenix,33.583444899999996,-111.97701869999999,220,3.5,1.0,0.0,0.0,0.0,0.0,0.0,0.0,0.0,0.0,0.0,242,2.3871370629778874
53BSdnhzcCBfBH_6TgX63Q,Rosati's Pizza,Phoenix,33.480413,-111.993894,146,3.0,1.0,0.0,0.0,0.0,0.0,0.0,0.0,0.0,0.0,0.0,243,2.3062510450089597
aP2Ma-Wx2lydppntCGhNSg,Gecko Grill,Phoenix,33.3778537807,-111.740792058,180,3.5,1.0,0.0,0.0,0.0,0.0,0.0,0.0,0.0,0.0,0.0,244,2.1599864338628314
jz4lgoy76EUsLvhcFYgHAw,Temple Bar Sports Grill,Phoenix,33.6416694996,-111.86202049299999,108,3.5,1.0,0.0,0.0,1.0,1.0,0.0,0.0,0.0,0.0,0.0,245,2.0639301160587458
L23qeWacyCZFjF9DL6o04w,Venezias New York Style Pizzeria,Phoenix,33.321668800000005,-111.8056712,202,4.0,1.0,0.0,0.0,0.0,0.0,0.0,0.0,0.0,0.0,0.0,246,2.4530765749318855
hU6sN5r6vayqm_RMgvPGOQ,Cheuvront,Phoenix,33.46333189999999,-112.0741467,181,3.5,1.0,0.0,0.0,1.0,1.0,0.0,0.0,0.0,0.0,0.0,247,2.3757553743344513
6Wc5DPXGudcNi2XK7QfQtA,Canyon Cafe,Phoenix,33.4521542,-112.0686202,290,3.5,1.0,0.0,0.0,0.0,0.0,0.0,0.0,0.0,0.0,0.0,248,2.2020905611448613
z2sVYcW5b04NEjWCSutI3g,Golden Corral,Phoenix,33.5526513,-112.1815558,67,3.0,1.0,0.0,0.0,0.0,0.0,0.0,0.0,0.0,0.0,0.0,249,1.9327757904298046
mz48xdVWcCu463U3Lm7lhA,Grimaldi's Pizzeria,Phoenix,33.4937779,-111.9264692,591,4.0,1.0,0.0,0.0,0.0,0.0,0.0,0.0,0.0,0.0,0.0,250,2.4866797348335052
sR0GYpPKs9CzixSLei03Vw,AMC Mesa Grand 14,Phoenix,33.3836435,-111.8029423,81,3.5,0.0,0.0,0.0,0.0,0.0,0.0,0.0,0.0,1.0,0.0,251,2.1526933780834385
j-JE8jELAHBbg6MKeAGanw,Cartwright's Sonoran Ranch House,Phoenix,33.8337864,-111.93652549999999,159,3.5,1.0,0.0,0.0,0.0,0.0,0.0,0.0,0.0,0.0,0.0,252,2.549877886951194
Ly2ShApiomYZwKehwb7eRA,Hiro Sushi,Phoenix,33.570469,-111.8867191,481,4.5,1.0,0.0,0.0,0.0,0.0,0.0,0.0,0.0,0.0,0.0,253,2.6643984823716904
6pQ1DpZo6zygNc3qTch-iA,Press Coffee Roasters,Phoenix,33.6238119,-111.9251887,257,4.0,1.0,0.0,0.0,0.0,0.0,0.0,0.0,1.0,0.0,0.0,254,2.5468182485441635
IdLzooqPyvEtP_rv2eR6pQ,Raising Cane's Chicken Fingers,Phoenix,33.463087113,-112.273150254,77,3.5,1.0,0.0,0.0,0.0,0.0,0.0,0.0,0.0,0.0,0.0,255,2.1309444018267336
u--jf3lS_04kmQNO4liAsQ,Capriotti's Sandwich Shop,Phoenix,33.5246905423,-112.047209605,100,3.5,1.0,0.0,0.0,0.0,0.0,0.0,0.0,0.0,0.0,0.0,256,2.605794477673662
gugN1sgyheBJ6aKtNcv_gQ,The Oink Cafe-Phoenix,Phoenix,33.599558319699995,-111.989065081,395,3.5,1.0,0.0,0.0,0.0,0.0,0.0,0.0,0.0,0.0,0.0,257,2.2566335546414886
z8Em-bhZI3Mmspml7tj6tg,Dickey's Barbecue Pit,Phoenix,33.581501,-111.92339299999999,93,2.5,1.0,0.0,0.0,0.0,0.0,0.0,0.0,0.0,0.0,0.0,258,1.7068390918594032
sLKpRaFns5Uqw1IEzK6obA,Z's Greek,Phoenix,33.495367699999996,-111.9940738,330,4.5,1.0,0.0,0.0,0.0,0.0,0.0,0.0,0.0,0.0,0.0,259,2.578798431174274
PmwKGY3HLpcnC_-g0NCIvQ,Dino's Greek and Italian Grill,Phoenix,33.4637121,-112.34161999999999,127,3.5,1.0,0.0,0.0,0.0,0.0,0.0,0.0,0.0,0.0,0.0,260,2.293691226838834
aKFZamejw8kpglVk7e4WSA,Herberger Theater Center,Phoenix,33.4507074659,-112.07058549799999,69,4.0,0.0,0.0,0.0,0.0,0.0,0.0,0.0,0.0,1.0,0.0,261,2.55657786688744
xxo0GsAFxQzUGStmCG6jWw,Genghis Grill,Phoenix,33.4324152,-111.9052063,284,3.5,1.0,0.0,0.0,0.0,0.0,0.0,0.0,0.0,0.0,0.0,262,2.171777877196454
s3AG8m6Pzq-vON729pf0gw,Zushi Japanese Bistro,Phoenix,33.4659630966,-111.686202333,126,3.5,1.0,0.0,0.0,0.0,0.0,0.0,0.0,0.0,0.0,0.0,263,1.9715929739727274
TqBrg3OpIJZo772EOA0I1g,Lao Thai,Phoenix,33.471801,-111.92746399999999,63,4.0,1.0,0.0,0.0,0.0,0.0,0.0,0.0,0.0,0.0,0.0,264,2.352260120232332
9mIm1ef-NVDQHFE39Faxxg,Vine Tavern & Eatery,Phoenix,33.4145111263,-111.927192103,101,3.5,1.0,0.0,0.0,0.0,0.0,0.0,0.0,0.0,0.0,0.0,265,2.129500249939521
PRbIMseOwPCCRv5C4SfTDQ,Lucille's Smokehouse Bar-B-Que,Phoenix,33.433975,-111.903833,517,3.5,1.0,0.0,0.0,0.0,0.0,0.0,0.0,0.0,0.0,0.0,266,2.0669819174377606
G8k2E3oYHHl2o4lNJQwR-g,Eden's Grill Inn,Phoenix,33.612935,-111.976905,257,4.5,1.0,0.0,0.0,0.0,0.0,0.0,0.0,0.0,0.0,0.0,267,2.7175658866604833
FGaaHr_krwaPGlD0mHPe4Q,Matta's Grill and Cantina,Phoenix,33.4351659963,-111.866054535,124,3.0,1.0,0.0,0.0,0.0,0.0,0.0,0.0,0.0,0.0,0.0,268,1.9110088757308885
n8fGqb4CCheGyWtr9KM6qw,Roma Garden Ristorante,Phoenix,33.6107716621,-111.996334513,183,4.0,1.0,0.0,0.0,0.0,0.0,0.0,0.0,0.0,0.0,0.0,269,2.497786661793966
yA8S-hu3p6ihuymhtjNZHA,Cafe Zupas,Phoenix,33.6396122212,-112.219945695,101,3.5,1.0,0.0,0.0,0.0,0.0,0.0,0.0,0.0,0.0,0.0,270,2.3078049626280213
wa8QgXQu1ZxwPgdRl9lYlg,Tampopo Ramen,Phoenix,33.3937812,-111.90858229999999,315,4.0,1.0,0.0,0.0,0.0,0.0,0.0,0.0,0.0,0.0,0.0,271,2.204209072008293
wJYFQrlx-uRmujWM_IDFtw,Nello's Pizza,Phoenix,33.5822686,-111.8923422,77,3.5,1.0,0.0,0.0,0.0,0.0,0.0,0.0,0.0,0.0,0.0,272,2.2846706865507005
4dCOilGYflzGzizOPKyvow,Grassroots Kitchen & Tap,Phoenix,33.5551911,-111.8990372,417,4.5,1.0,0.0,0.0,0.0,0.0,0.0,0.0,0.0,0.0,0.0,273,2.5995340488114906
BgTFsq79xmnRkX0gA1za1Q,Twin Peaks,Phoenix,33.629436,-111.891499,267,3.5,1.0,0.0,0.0,1.0,1.0,0.0,0.0,0.0,0.0,0.0,274,1.960997943119244
OD09pm-MzynigAvD5KoGPA,Mucha Lucha Taco Shop,Phoenix,33.4078133,-111.95093200000001,288,4.5,1.0,0.0,0.0,0.0,0.0,0.0,0.0,0.0,0.0,0.0,275,2.6565826435693265
nFR7dDedxRuBeZz_6Cdalg,Cantina Laredo,Phoenix,33.6368494,-111.92171850000001,240,3.5,1.0,0.0,0.0,1.0,1.0,0.0,0.0,0.0,0.0,0.0,276,2.051733596420726
Cv47JcsyTqTxxxowtIlSVw,Four Peaks Tasting Room,Phoenix,33.4025769,-111.9439658,56,4.5,0.0,0.0,0.0,1.0,1.0,0.0,0.0,0.0,0.0,0.0,277,2.740384349112545
acD0l-j5Kr-edoO-_tcbyg,Baby Kay's Cajun Kitchen,Phoenix,33.5075394,-112.03751840000001,146,3.5,1.0,0.0,0.0,0.0,0.0,0.0,0.0,0.0,0.0,0.0,278,2.184533220868787
sArY4vj_AtHLZoKHscD4ew,Smashburger,Phoenix,33.432914399999994,-111.90545049999999,92,4.0,1.0,0.0,0.0,0.0,0.0,0.0,0.0,0.0,0.0,0.0,279,2.393682249165476
9JyyXlFBHCdoP6TRQ3cqbA,Scottsdale Beer Company,Phoenix,33.5830028732,-111.89486165,301,4.0,1.0,0.0,0.0,1.0,1.0,0.0,0.0,0.0,0.0,0.0,280,2.43579424917723
OQggqcQglU-lHY3rY-8Lhw,Mother Bunch Brewing,Phoenix,33.457334,-112.06482700000001,384,4.0,1.0,0.0,0.0,1.0,1.0,0.0,0.0,0.0,0.0,0.0,281,2.4733098415101242
Yk8WiriuHOkAXufUqGZMyg,Culver's,Phoenix,33.6831904911,-112.097922218,108,3.5,1.0,0.0,0.0,0.0,0.0,0.0,0.0,0.0,0.0,0.0,282,2.3536061891386026
Jzth-y32SyvOhJNgbIPTqQ,Hummus Xpress,Phoenix,33.407803263000005,-111.95375323200001,412,4.5,1.0,0.0,0.0,0.0,0.0,0.0,0.0,0.0,0.0,0.0,283,2.6919080192053446
UY13CTgUqriT-fMxT2APLw,Khai Hoàn Restaurant,Phoenix,33.4142116,-111.9126567,304,4.0,1.0,0.0,0.0,0.0,0.0,0.0,0.0,0.0,0.0,0.0,284,2.575407393337017
u12UCVo-zyFTX2Nxf_n63A,In-N-Out Burger,Phoenix,33.676353999999996,-111.9736513,113,4.0,1.0,0.0,0.0,0.0,0.0,0.0,0.0,0.0,0.0,0.0,285,2.4496458705271493
KrNcz4VCtOpPRdAyJTJgig,Biagio Nail & Spa,Phoenix,33.537179200000004,-112.0465777,113,4.0,0.0,0.0,1.0,0.0,0.0,0.0,0.0,0.0,0.0,0.0,286,2.479052685279055
SotrpltgrAJBqNGZlbYUNA,The Farmhouse Restaurant,Phoenix,33.3545961,-111.78990859999999,325,4.0,1.0,0.0,0.0,0.0,0.0,0.0,0.0,0.0,0.0,0.0,287,2.458035309146702
A3KOvIWGMVq1ChqIXMEklA,Culver's,Phoenix,33.379974,-111.83953259999998,119,4.0,1.0,0.0,0.0,0.0,0.0,0.0,0.0,0.0,0.0,0.0,288,2.3123064692529898
e2SP1ZLQI45948rv_sNIUg,Biscuits Cafe,Phoenix,33.3373254,-111.87710829999999,178,3.5,1.0,0.0,0.0,0.0,0.0,0.0,0.0,0.0,0.0,0.0,289,2.2761663895191027
vBV5IbpTgUKuu2HlneE2NA,America's Taco Shop,Phoenix,33.4217344,-111.9271489,142,3.5,1.0,0.0,0.0,0.0,0.0,0.0,0.0,0.0,0.0,0.0,290,2.083958405373669
mYlNFkIiFY3SyDl-nPWR5g,Nick's,Phoenix,33.583923999999996,-111.978526,124,3.5,1.0,0.0,0.0,0.0,0.0,0.0,0.0,0.0,0.0,0.0,291,2.189054862509937
_4nmPgw_CWPS9Qkerkp0tg,TK's Urban Tavern,Phoenix,33.623437449499995,-111.924623251,208,3.5,1.0,0.0,0.0,0.0,0.0,0.0,0.0,0.0,0.0,0.0,292,2.19176267477156
qgAZPDQStZP_Y5XTiQ6UqA,Postino Annex,Phoenix,33.4240289389,-111.934724179,410,4.5,1.0,0.0,0.0,1.0,1.0,0.0,0.0,0.0,0.0,0.0,293,2.6634115121809017
4yGrrjIS0gu5gYAUIFU3fA,Mimi's Cafe,Phoenix,33.58020379999999,-112.12497079999999,54,3.0,1.0,0.0,0.0,0.0,0.0,0.0,0.0,0.0,0.0,0.0,294,2.023093298649419
6GCbZASjMnAPYBWLc_z30g,Mimi's Cafe,Phoenix,33.5828297332,-111.887102732,107,3.0,1.0,0.0,0.0,0.0,0.0,0.0,0.0,0.0,0.0,0.0,295,1.777506765771139
Y5CTA3S9TVkpr3Yvwaki-A,iPic Theaters,Phoenix,33.624721,-111.92364599999999,447,4.0,1.0,0.0,0.0,1.0,1.0,0.0,0.0,0.0,1.0,0.0,296,2.404145818897083
QdvROupQvDDQIaHrTGNgKA,Szechwan Palace,Phoenix,33.4552320752,-111.989014772,235,3.5,1.0,0.0,0.0,0.0,0.0,0.0,0.0,0.0,0.0,0.0,297,2.3266619904672465
eN8mkjt_q686hGKi-A9ceg,Byblos Restaurant,Phoenix,33.3918772,-111.9400441,143,4.0,1.0,0.0,0.0,0.0,0.0,0.0,0.0,0.0,0.0,0.0,298,2.3369362723312754
9Cv6nCZ8v2jFMx-pbCwkzQ,The Habit Burger Grill,Phoenix,33.636499416599996,-111.921483562,113,4.0,1.0,0.0,0.0,0.0,0.0,0.0,0.0,0.0,0.0,0.0,299,2.406211089569903
SxelcKtJlN6X2Vlak0wXHw,Mi Pueblo,Phoenix,33.5741241533,-112.12561458299999,123,4.0,1.0,0.0,0.0,0.0,0.0,0.0,0.0,0.0,0.0,0.0,300,2.441905628596905
Dqzkdf0sz8lm9AFjfsDmIw,The Keg Steakhouse + Bar,Phoenix,33.4325515877,-111.90712451899999,254,4.0,1.0,0.0,0.0,1.0,1.0,0.0,0.0,0.0,0.0,0.0,301,2.427988158203103
YMZy_nGxtJtuQvflM6Ltww,Taste of Tops,Phoenix,33.4214828,-111.9448114,113,4.0,0.0,0.0,0.0,1.0,1.0,0.0,0.0,0.0,0.0,0.0,302,2.582438512073043
LhBP1BxWBM3aLLRR4zgQlw,Oregano's Pizza Bistro,Phoenix,33.355969,-111.7900143,303,4.0,1.0,0.0,0.0,0.0,0.0,0.0,0.0,0.0,0.0,0.0,303,2.4401636646103695
kG_EB5RAsSA3f9HJikI1rw,Zinburger,Phoenix,33.356729,-111.79011200000001,432,3.5,1.0,0.0,0.0,0.0,0.0,0.0,0.0,0.0,0.0,0.0,304,2.2615107249882986
3QQEc5QUP-h6LCkUZQEYQw,Santisi Brothers,Phoenix,33.6416138361,-112.117387241,295,4.0,1.0,0.0,0.0,1.0,1.0,0.0,0.0,0.0,0.0,0.0,305,2.3100172736274596
nZZaLSXkCBYRri9ZfVOgyw,Casa Filipina Bakeshop & Restaurant,Phoenix,33.6092740857,-112.13508278,125,4.0,1.0,0.0,0.0,0.0,0.0,0.0,0.0,0.0,0.0,0.0,306,2.424727178860066
nkHaix6KenApS8M-liZsCQ,Christopher's and Crush Lounge,Phoenix,33.511417,-112.02855,259,4.0,1.0,0.0,0.0,1.0,1.0,0.0,0.0,0.0,0.0,0.0,307,2.5196237813832787
x52yXO5HwDq_BpGRyPhJxQ,Golden Corral Steak & Buffet House,Phoenix,33.3737956921,-111.80777009999998,95,3.0,1.0,0.0,0.0,0.0,0.0,0.0,0.0,0.0,0.0,0.0,308,1.7591701412954328
sZf_KrF9ZLC7z4jiLGgVOw,Steve's Espresso,Phoenix,33.3773276,-111.9086062,124,4.0,1.0,0.0,0.0,1.0,1.0,0.0,0.0,1.0,0.0,0.0,309,2.4770394281310595
STtrEGylaYOXoXQFLP5OAQ,The Breadfruit & Rum Bar,Phoenix,33.4557075,-112.07201140000001,486,3.5,1.0,0.0,0.0,1.0,1.0,0.0,0.0,0.0,0.0,0.0,310,2.314446025316039
p-8AMN9Q0qwym-3Pdle20Q,Pita Jungle,Phoenix,33.58413970000001,-111.92224809999999,393,4.0,1.0,0.0,0.0,0.0,0.0,0.0,0.0,0.0,0.0,0.0,311,2.425816494156257
NgDyxaeItFSInv7J5paGLQ,The Kettle Black Kitchen & Pub,Phoenix,33.4485961,-112.0721686,228,4.5,1.0,0.0,0.0,1.0,1.0,0.0,0.0,0.0,0.0,0.0,312,2.5301195910608367
LV9Stq-s3H4dqaTE1Z7rwA,Flo's,Phoenix,33.6362401,-111.9213347,231,3.5,1.0,0.0,0.0,0.0,0.0,0.0,0.0,0.0,0.0,0.0,313,2.182341818733905
2g4ZTD3ePNSbDAvh6qAOKQ,Los Reyes De La Torta,Phoenix,33.5708402,-112.06565239999999,533,4.5,1.0,0.0,0.0,0.0,0.0,0.0,0.0,0.0,0.0,0.0,314,2.6495383518744484
ZrFqa9sUaF_X8wbNz29Qbw,Sweet Tomatoes,Phoenix,33.393496,-111.914905,138,4.0,1.0,0.0,0.0,0.0,0.0,0.0,0.0,0.0,0.0,0.0,315,2.2152886752288845
8nNB_yG1gzVpbqNH2EBucg,Z'Tejas,Phoenix,33.319228,-111.967855,263,3.5,1.0,0.0,0.0,1.0,1.0,0.0,0.0,0.0,0.0,0.0,316,2.2581347013279474
7uGsMlo8_uIZIITKfhEARA,Chandler Fashion Center,Phoenix,33.3056575,-111.8977551,153,4.0,0.0,1.0,0.0,0.0,0.0,0.0,0.0,0.0,0.0,0.0,317,2.4263042738257385
WSmOu-JNHfVxvisIWAvL9Q,Binkley's Restaurant,Phoenix,33.8303689,-111.9316131,245,4.5,1.0,0.0,0.0,0.0,0.0,0.0,0.0,0.0,0.0,0.0,318,2.6179032429870457
UBQRhqRMW4Sk7kSZvZ1iAQ,Essence Bakery Café,Phoenix,33.4216572978,-111.951169743,430,4.0,1.0,0.0,0.0,0.0,0.0,0.0,0.0,0.0,0.0,0.0,319,2.4905082169975823
RQdKieW9hqg898d_S2WwRA,Yogis Grill,Phoenix,33.5076828,-112.04596940000002,76,3.5,1.0,0.0,0.0,0.0,0.0,0.0,0.0,0.0,0.0,0.0,320,2.1691059651791362
G4X5w5vRQNEFUmrJo6JakA,McFadden's Restaurant & Saloon,Phoenix,33.5330493,-112.2620364,320,1.5,1.0,0.0,0.0,1.0,1.0,0.0,0.0,0.0,0.0,0.0,321,1.1504994309754095
DvY_J2gFxudK9HC8kjI3NA,Park Central Deli,Phoenix,33.4834856537,-112.075545573,60,3.5,1.0,0.0,0.0,0.0,0.0,0.0,0.0,0.0,0.0,0.0,322,2.1570352461613007
MVg8_dWzoCtGjBvWCatjjQ,California Pizza Kitchen,Phoenix,33.5105844267,-112.02966621799999,107,3.5,1.0,0.0,0.0,0.0,0.0,0.0,0.0,0.0,0.0,0.0,323,2.1508547540535816
P2GBKrx7dJg3xeGtuU2K-A,Bluewater Grill,Phoenix,33.5101676,-112.0449114,380,4.0,1.0,0.0,0.0,0.0,0.0,0.0,0.0,0.0,0.0,0.0,324,2.414240526639674
urkODQ1jX0qQzgbqsQjWVQ,Flower Child,Phoenix,33.510484000000005,-111.986166,372,4.0,1.0,0.0,0.0,0.0,0.0,0.0,0.0,0.0,0.0,0.0,325,2.5619921085716193
9wS_BQBh9VGEb0645XBrhA,Casa Ramos,Phoenix,33.4155827,-111.7985166,190,4.0,1.0,0.0,0.0,1.0,1.0,0.0,0.0,0.0,0.0,0.0,326,2.262062445259974
_WvEXsx2eZ53lTWHlIx9kg,Blue Hound Kitchen & Cocktails,Phoenix,33.4475192982,-112.07364375600001,435,4.0,1.0,0.0,0.0,0.0,0.0,0.0,0.0,0.0,0.0,0.0,327,2.2976237340394072
dNr7VKRti8dXWE-jzfVBtQ,The Perch Pub & Brewery,Phoenix,33.300157,-111.84251499999999,574,3.5,1.0,0.0,0.0,1.0,1.0,0.0,0.0,0.0,0.0,0.0,328,2.18651487737892
z5KWNSDvgv-4I62P8l8Ynw,Maverick Coffee,Phoenix,33.579699,-111.92406799999999,148,4.5,0.0,0.0,0.0,0.0,0.0,0.0,0.0,1.0,0.0,0.0,329,2.762228376040425
SdO1UHwE8Rjz3Pz2lBUa5w,Rudy's Country Store and Bar-B-Q,Phoenix,33.4556480225,-112.35760528700001,317,3.5,1.0,0.0,0.0,0.0,0.0,0.0,0.0,0.0,0.0,0.0,330,2.1741173368726776
DncyhhT6-T-_g961pbEftA,Southwest Airlines,Phoenix,33.43505510000001,-112.02671140000001,102,3.5,0.0,0.0,0.0,0.0,0.0,0.0,0.0,0.0,0.0,1.0,331,2.439234038641317
oUvqwPJkorOnYZFKRt0oEg,Baci Italian Bistro,Phoenix,33.278135999999996,-111.64303000000001,184,4.0,1.0,0.0,0.0,0.0,0.0,0.0,0.0,0.0,0.0,0.0,332,2.357662969975465
GLVahCssTKPBY_06LzUGQA,Rainbow Donuts Cafe and Deli,Phoenix,33.611676986999996,-111.998446161,93,4.5,1.0,0.0,0.0,0.0,0.0,0.0,0.0,0.0,0.0,0.0,333,2.848372088703816
odVKlMYqb4FHJXManv-VRA,Grabbagreen,Phoenix,33.6281331589,-111.891825438,218,4.0,1.0,0.0,0.0,0.0,0.0,0.0,0.0,0.0,0.0,0.0,334,2.3843610183409902
S6BixeT6xkktY3keKSyYrQ,Chipotle Mexican Grill,Phoenix,33.5814114,-112.12516629999999,73,3.0,1.0,0.0,0.0,0.0,0.0,0.0,0.0,0.0,0.0,0.0,335,2.2605148512349693
5GwFUNl6nsDsMuv435G1Eg,Coffee Rush,Phoenix,33.3783953,-111.78781210000001,131,4.0,0.0,0.0,0.0,0.0,0.0,0.0,0.0,1.0,0.0,0.0,336,2.454025719944152
IJx1rrQPU5vNxCgV3f4MYA,Atlas Bistro  BYOB,Phoenix,33.475411,-111.925542,121,4.5,1.0,0.0,0.0,0.0,0.0,0.0,0.0,0.0,0.0,0.0,337,2.729723091831475
RwsBMCn_NhbpWj4sIQIA6Q,Southwest Airlines,Phoenix,33.4352284,-111.99782730000001,192,3.0,0.0,0.0,0.0,0.0,0.0,0.0,0.0,0.0,0.0,1.0,338,2.5528141446425288
IKpVBsOTixsnoU4r0Sc42A,Papaya Thai Restaurant,Phoenix,33.4073807,-111.9099528,174,2.5,1.0,0.0,0.0,0.0,0.0,0.0,0.0,0.0,0.0,0.0,339,1.733394415730364
WXR0ND0KqbArMZDvFMA-bw,Hopdoddy Burger Bar,Phoenix,33.5082932082,-112.037508734,190,4.0,1.0,0.0,0.0,1.0,1.0,0.0,0.0,0.0,0.0,0.0,340,2.3747723586807536
px0VdZdyTaclveb1LfV6rA,Harkins Theatres Shea 14,Phoenix,33.5837018,-111.9224533,65,3.5,0.0,0.0,0.0,0.0,0.0,0.0,0.0,0.0,1.0,0.0,341,2.2785628226675696
FirWX-Ep5203TsdiGgShKg,The Vig Uptown,Phoenix,33.5244309,-112.04708470000001,479,4.0,1.0,0.0,0.0,0.0,0.0,0.0,0.0,0.0,0.0,0.0,342,2.3677205214210058
7XTGtaKjANmZqp2QtN_iPA,British Open English Pub & Grill,Phoenix,33.4633922818,-111.927003054,101,3.5,1.0,0.0,0.0,1.0,1.0,0.0,0.0,0.0,0.0,0.0,343,2.208928489996524
qC0Di2wDeUBMSMbz6fdYBw,Frasher's Steak House & Lounge,Phoenix,33.4716681,-111.9265148,129,4.0,1.0,0.0,0.0,0.0,0.0,0.0,0.0,0.0,0.0,0.0,344,2.335741240773728
jOseCpGmgbQWEfX2Wn_TGQ,Avanti,Phoenix,33.480492100000006,-112.0221966,140,4.0,1.0,0.0,0.0,1.0,1.0,0.0,0.0,0.0,0.0,0.0,345,2.1726924575731443
Rj3wnYT1QAxpJlRT5mMc-g,Harlow's Cafe,Phoenix,33.421587699999996,-111.9531274,388,4.0,1.0,0.0,0.0,0.0,0.0,0.0,0.0,0.0,0.0,0.0,346,2.372435842053597
fbLYRHIZAt3q839whhaBUg,Oregano's Pizza Bistro,Phoenix,33.5996610763,-111.98229337,210,3.5,1.0,0.0,0.0,0.0,0.0,0.0,0.0,0.0,0.0,0.0,347,2.1989823181995996
M5gj8a6Qtjy06lh3L5zUqA,"Royal Palms Resort and Spa, in the Unbound Collection by Hyatt",Phoenix,33.5050197247,-111.96879941200001,205,4.5,1.0,0.0,1.0,0.0,0.0,0.0,0.0,0.0,0.0,1.0,348,2.7651389942519815
GiDPLKtTfNHTb0koEWIz2g,Woodlands Vegetarian South Indian Kitchen,Phoenix,33.3215399,-111.9275344,157,4.0,1.0,0.0,0.0,0.0,0.0,0.0,0.0,0.0,0.0,0.0,349,2.5082121997532365
dNHDXn2ot4mFc2YfIFBNhQ,Carrabba's Italian Grill,Phoenix,33.638197,-112.3625581,107,3.0,1.0,0.0,0.0,0.0,0.0,0.0,0.0,0.0,0.0,0.0,350,2.0697724668282307
k1QpHAkzKTrFYfk6u--VgQ,The Parlor,Phoenix,33.5094461,-112.0403946,965,4.0,1.0,0.0,0.0,0.0,0.0,0.0,0.0,0.0,0.0,0.0,351,2.5915078383054833
DmCPv4CV_raaokmJU7pkFA,Half Price Books,Phoenix,33.600211,-111.9894,65,4.0,0.0,1.0,0.0,0.0,0.0,0.0,0.0,0.0,0.0,0.0,352,2.557572313831941
v2tjswIV3e0c8o7_7MwYmg,Mellow Mushroom,Phoenix,33.6760537276,-111.965203732,240,3.5,1.0,0.0,0.0,1.0,1.0,0.0,0.0,0.0,0.0,0.0,353,2.1904775796871125
moVd1rJwIMMhet0qD70LzQ,Brunchies,Phoenix,33.3021356,-111.8410678,117,3.5,1.0,0.0,0.0,0.0,0.0,0.0,0.0,0.0,0.0,0.0,354,2.2721414706009675
H7kB4p-1BsbvL522cqASOQ,Bryan's Black Mountain Barbecue,Phoenix,33.8326435,-111.94860390000001,274,4.0,1.0,0.0,0.0,0.0,0.0,0.0,0.0,0.0,0.0,0.0,355,2.5376017638311845
piHJq_NDrOh5SYk3AyQVOg,Chestnut Fine Foods & Provisions,Phoenix,33.5098255809,-111.987097553,189,3.0,1.0,0.0,0.0,0.0,0.0,0.0,0.0,0.0,0.0,0.0,356,1.9676640676333739
PEnlf5CJ8JJonph2jIljCg,Chompie's Deli,Phoenix,33.2976955302,-111.901330948,366,3.5,1.0,0.0,0.0,0.0,0.0,0.0,0.0,0.0,0.0,0.0,357,2.219074629417049
0zTLMQOZhiCp9GFtegiFsw,Kohinoor Cuisine of India,Phoenix,33.4167343,-111.92200420000002,187,4.0,1.0,0.0,0.0,0.0,0.0,0.0,0.0,0.0,0.0,0.0,358,2.2822422138553624
UESdOMLsXn_7WcwOZt7I3A,George & Dragon Restaurant,Phoenix,33.4978019,-112.074054,359,3.5,1.0,0.0,0.0,1.0,1.0,0.0,0.0,0.0,0.0,0.0,359,2.231885029615102
6_JqE5olfHoz1T_m96G85g,Bourbon Jacks,Phoenix,33.3020707,-111.84186310000001,133,4.0,1.0,0.0,0.0,1.0,1.0,0.0,0.0,0.0,1.0,0.0,360,2.3303822701874473
BrtjhRqnwoirhbeXTvs26g,Mimita's Cuban Cafe,Phoenix,33.3345642,-111.84273770000001,136,4.0,1.0,0.0,0.0,0.0,0.0,0.0,0.0,0.0,0.0,0.0,361,2.3980501118600253
y2e1DgIUBlERep7hrKz2-w,Arriba Mexican Grill,Phoenix,33.6253857,-111.89163190000001,159,2.5,1.0,0.0,0.0,1.0,1.0,0.0,0.0,0.0,0.0,0.0,362,1.828247110821844
y3bMutme81x4PUhb0zaC_A,Dilly's Deli,Phoenix,33.263962,-111.857826,62,3.5,1.0,0.0,0.0,0.0,0.0,0.0,0.0,0.0,0.0,0.0,363,2.2149789665339528
ndQTAJzhhkrl1i5ToEGSZw,Oregano's Pizza Bistro,Phoenix,33.4216173426,-111.946675175,461,4.0,1.0,0.0,0.0,0.0,0.0,0.0,0.0,0.0,0.0,0.0,364,2.4670303073338813
XndboLEYVjm3v6MQQM-TtQ,Gila River Arena,Phoenix,33.5314673,-112.2609115,155,4.0,0.0,0.0,0.0,0.0,0.0,0.0,0.0,0.0,1.0,0.0,365,2.4810581708197463
Lm61pehc-oyqR6DBAAQNCg,Kiss the Cook Restaurant,Phoenix,33.5381649,-112.16552720000001,219,4.0,1.0,0.0,0.0,0.0,0.0,0.0,0.0,0.0,0.0,0.0,366,2.3422485521850396
WzrMNz9eUF78RgZGDTS8xg,Pei Wei,Phoenix,33.4954167,-111.98819099999999,93,3.0,1.0,0.0,0.0,0.0,0.0,0.0,0.0,0.0,0.0,0.0,367,2.183997686531734
85o8XAZDoPmRqHFhdJLAGg,Song Lynn,Phoenix,33.478015899999995,-112.25455900000001,160,4.5,1.0,0.0,0.0,0.0,0.0,0.0,0.0,0.0,0.0,0.0,368,2.6410948704813992
IkLAUX7lZIWqE9_YC66SRw,il Capo Pizzeria,Phoenix,33.584013899999995,-111.9222691,172,4.0,1.0,0.0,0.0,1.0,1.0,0.0,0.0,0.0,0.0,0.0,369,2.3597056677942043
bWucOPNoIjd8ECdiDyVq9Q,Singing Pandas Asian Restaurant & Bar,Phoenix,33.305778000000004,-111.8287607,218,4.5,1.0,0.0,0.0,1.0,1.0,0.0,0.0,0.0,0.0,0.0,370,2.789648592619916
-tcJmqzfaeEnpFMAelB7bA,MedFresh Grill,Phoenix,33.4259647,-111.9402513,146,3.5,1.0,0.0,0.0,0.0,0.0,0.0,0.0,0.0,0.0,0.0,371,2.2422178953909273
8XFDd4uX-g5B4JJzIahPHg,The Yard at Farmer Arts District,Phoenix,33.4285842177,-111.9439831,93,4.0,1.0,0.0,0.0,1.0,1.0,0.0,0.0,0.0,0.0,0.0,372,2.491062831915216
kPR47uxGqmQNIQkIZr2_Tg,Black Bear Diner,Phoenix,33.4565552136,-112.341608594,309,4.0,1.0,0.0,0.0,0.0,0.0,0.0,0.0,0.0,0.0,0.0,373,2.3478858860631706
aXiXvy5cBMeb6m2j7WFuzg,Helio Basin Brewing,Phoenix,33.479805,-111.996228,114,4.5,1.0,0.0,0.0,1.0,1.0,0.0,0.0,0.0,0.0,0.0,374,2.6132181795084057
HeoiKMh2aPzWRq5ZQtSb3g,SEA LIFE Arizona Aquarium,Phoenix,33.383123,-111.96448500000001,203,3.5,0.0,0.0,0.0,0.0,0.0,1.0,0.0,0.0,0.0,0.0,375,2.0183843677552784
0vdw9E5zzYDNsW_smjBmHA,El Sol Mexican Cafe,Phoenix,33.3165279,-111.84201540000001,95,4.5,1.0,0.0,0.0,0.0,0.0,0.0,0.0,0.0,0.0,0.0,376,2.595317099015534
UT9KnZ288uwsz4pxzUVzIQ,Christown Spectrum,Phoenix,33.5224329,-112.09629640000001,42,2.5,0.0,1.0,0.0,0.0,0.0,0.0,0.0,0.0,0.0,0.0,377,1.446282415279087
awPIH7K4WA5BKJfiQlZcow,Bison Witches Bar & Deli,Phoenix,33.424014,-111.938422,119,3.5,1.0,0.0,0.0,1.0,1.0,0.0,0.0,0.0,0.0,0.0,378,2.1578882210664236
cjxPOPcFkpq0cspQ2cHL8w,El Charro Restaurant & Cocktail Lounge,Phoenix,33.4175647,-111.83958770000001,91,3.5,1.0,0.0,0.0,1.0,1.0,0.0,0.0,0.0,0.0,0.0,379,2.047563658933362
-rCIoxp7pqN3xY7E3-v56Q,Arriba Mexican Grill,Phoenix,33.3047984,-111.9815537,189,3.0,1.0,0.0,0.0,0.0,0.0,0.0,0.0,0.0,0.0,0.0,380,1.8285793320332067
RN0PTeMSF_eaeXN6VV7RwA,RA Sushi Bar Restaurant,Phoenix,33.4260009878,-111.93982601200001,315,3.0,1.0,0.0,0.0,1.0,1.0,0.0,0.0,0.0,0.0,0.0,381,1.860812279811639
kzqx6Z2sse8PV3hVCVEw4g,Bombay Spice Grill,Phoenix,33.583940399999996,-111.97876979999998,141,3.5,1.0,0.0,0.0,0.0,0.0,0.0,0.0,0.0,0.0,0.0,382,2.400102923481292
LgroNa-JH5W-wpJACXuz5A,Akita Sushi,Phoenix,33.569172200000004,-111.88572450000001,296,3.5,1.0,0.0,0.0,0.0,0.0,0.0,0.0,0.0,0.0,0.0,383,2.3294647222951896
z6-reuC5BYf_Rth9gMBfgQ,St. Francis Restaurant,Phoenix,33.5089868,-112.0712744,1195,4.0,1.0,0.0,0.0,0.0,0.0,0.0,0.0,0.0,0.0,0.0,384,2.462309703695088
VuCrxI61nT30OndMcrPgkA,Sip Coffee & Beer House,Phoenix,33.489574,-111.926671,262,4.5,0.0,0.0,0.0,1.0,1.0,0.0,0.0,1.0,0.0,0.0,385,2.6135026734158044
2uRM8Et0uJVl8u1jSnmuKw,Takeda Thai,Phoenix,33.579786799999994,-111.92406489999999,141,4.0,1.0,0.0,0.0,0.0,0.0,0.0,0.0,0.0,0.0,0.0,386,2.518401793324881
emOpqfJTtRHMd8dUg_AAsw,C-Fu Gourmet,Phoenix,33.334007,-111.87738229999998,181,3.0,1.0,0.0,0.0,0.0,0.0,0.0,0.0,0.0,0.0,0.0,387,1.992186156480237
ZOj56SAgGoFs6ymO-n672g,Lenny's Burger Shop,Phoenix,33.58320429999999,-112.1857165,93,3.5,1.0,0.0,0.0,0.0,0.0,0.0,0.0,0.0,0.0,0.0,388,2.2414613627402886
cPEo3-TmIqCwHLFGKZgwGg,Chou's Kitchen,Phoenix,33.319646500000005,-111.8593493,283,4.0,1.0,0.0,0.0,0.0,0.0,0.0,0.0,0.0,0.0,0.0,389,2.475231366364071
lOW5kH6nHVOYfmoAfpWvHw,Miu's Cuisine,Phoenix,33.4150511,-111.88953219999999,88,4.0,1.0,0.0,0.0,0.0,0.0,0.0,0.0,0.0,0.0,0.0,390,2.559881742474815
9d3xGYst3o4KhDwhF2dFMg,The Habit Burger Grill,Phoenix,33.599179317600004,-111.98333377799999,100,4.0,1.0,0.0,0.0,0.0,0.0,0.0,0.0,0.0,0.0,0.0,391,2.248205355330544
i0sp8DNw3FolMn-uGIkVyw,Dazzo's Dog House,Phoenix,33.53826110000001,-112.1926084,105,4.0,1.0,0.0,0.0,0.0,0.0,0.0,0.0,0.0,0.0,0.0,392,2.383498917513113
zr93wrNyXzc-HW4IcK4iRQ,Soi 4 Bangkok Eatery,Phoenix,33.5663692607,-111.924612522,196,4.0,1.0,0.0,0.0,0.0,0.0,0.0,0.0,0.0,0.0,0.0,393,2.5989236672872194
6C_8Mh4lmLc_QEs3hHleBg,El Pollo Supremo,Phoenix,33.421566600000006,-111.942904,176,4.0,1.0,0.0,0.0,0.0,0.0,0.0,0.0,0.0,0.0,0.0,394,2.5041369973959138
qKS7YV76te6olKnA_aMPTg,Wildfish Seafood Grille,Phoenix,33.5020036166,-111.928035021,432,4.0,1.0,0.0,0.0,1.0,1.0,0.0,0.0,0.0,1.0,0.0,395,2.581828698225538
8B1TIuaqhaZ7QMEhDUu-Gg,D'Lite Healthy On The Go,Phoenix,33.4144553,-111.9207409,208,4.0,1.0,0.0,0.0,0.0,0.0,0.0,0.0,1.0,0.0,0.0,396,2.5829111097225996
E4JyAzB5_2quptwtemyhYA,Original Breakfast House,Phoenix,33.6108041847,-112.012835966,810,4.5,1.0,0.0,0.0,0.0,0.0,0.0,0.0,0.0,0.0,0.0,397,2.5829874791187
e4qQlNEop42LoFBwv71dVw,Ruth's Chris Steak House,Phoenix,33.5393489,-111.9239084,269,4.0,1.0,0.0,0.0,0.0,0.0,0.0,0.0,0.0,0.0,0.0,398,2.531606166203344
BgthHqiXot2s4Sd_xcI6DQ,Pita Jungle,Phoenix,33.4957331182,-111.988441937,318,4.0,1.0,0.0,0.0,0.0,0.0,0.0,0.0,0.0,0.0,0.0,399,2.4869022606256905
_mg5bYknpZgaWSfjQVmrJQ,Spinato's Pizzeria,Phoenix,33.5170064113,-112.064651345,221,4.0,1.0,0.0,0.0,0.0,0.0,0.0,0.0,0.0,0.0,0.0,400,2.5599087609290563
FogTa-wmjhVnJCoTiaxvZA,Postino Central,Phoenix,33.5126732,-112.07409979999998,857,4.5,1.0,0.0,0.0,1.0,1.0,0.0,0.0,0.0,0.0,0.0,401,2.73730918029728
hxUxeY8DG9lhyjCVo_s-pw,McFate Brewing Company,Phoenix,33.4626163,-111.9269743,243,4.0,1.0,0.0,0.0,1.0,0.0,0.0,0.0,0.0,0.0,0.0,402,2.4460264947249324
YYX_ZQpmTEnEZMnh5VXj8w,Lookout Mountain Preserve,Phoenix,33.6280203906,-112.048144341,49,4.5,0.0,0.0,0.0,0.0,0.0,1.0,0.0,0.0,0.0,0.0,403,2.7226675279267036
ydqbNz2sHENV9XOElwyAYA,Blue Adobe Grille,Phoenix,33.585281200000004,-111.8347721,254,4.0,1.0,0.0,0.0,1.0,1.0,0.0,0.0,0.0,0.0,0.0,404,2.3390546378148405
ALwfJk1g56dz8ehgYJNrdg,Mamma Mia,Phoenix,33.4948977,-112.0637645,113,4.0,1.0,0.0,0.0,0.0,0.0,0.0,0.0,0.0,0.0,0.0,405,2.558606873035824
RA1Jchnz3uQDg4YVHckKXQ,Fair Trade Cafe,Phoenix,33.4593954,-112.0742496,191,4.0,1.0,0.0,0.0,0.0,0.0,0.0,0.0,1.0,0.0,0.0,406,2.486699870517246
VXsjUX82DnnEB36G2YPBlw,Tom's Thumb Trailhead,Phoenix,33.59936079999999,-111.80464369999999,63,4.5,0.0,0.0,0.0,0.0,0.0,1.0,0.0,0.0,0.0,0.0,407,2.8207148582795885
du9_QFb75sxzKnLLQwSkMw,Five Guys Burgers and Fries,Phoenix,33.6398926,-112.0676247,135,3.5,1.0,0.0,0.0,0.0,0.0,0.0,0.0,0.0,0.0,0.0,408,2.268823570940231
6P-JmU0VW-qhYq7It1wowg,Pho 68,Phoenix,33.3361505,-111.8743381,75,3.5,1.0,0.0,0.0,0.0,0.0,0.0,0.0,0.0,0.0,0.0,409,1.9996352448459662
vn5Ebwy-IdtJ6PQE6y7vaA,Halo-Halo Kitchen,Phoenix,33.56674,-112.13599280000001,163,4.0,1.0,0.0,0.0,1.0,0.0,0.0,0.0,0.0,0.0,0.0,410,2.365199905754056
1dX0u7zsjizDvatHEutHdQ,Lenny's Burger,Phoenix,33.5382419,-112.1146912,84,4.0,1.0,0.0,0.0,0.0,0.0,0.0,0.0,0.0,0.0,0.0,411,2.470825495706739
1HD5iUUfVJDbfEBIn9yVhw,Boba Tea House,Phoenix,33.3371772,-111.87536270000001,273,4.0,0.0,0.0,0.0,0.0,0.0,0.0,0.0,1.0,0.0,0.0,412,2.541660993290744
j_prxgHnMvuRdrGjAI9qXQ,Z'Tejas Mexican Restaurant and Grill,Phoenix,33.5237125,-112.0485997,148,3.5,1.0,0.0,0.0,0.0,0.0,0.0,0.0,0.0,0.0,0.0,413,2.239456844071291
2DUdvdQE8FOxCHHp59HHzw,Bertha's Café,Phoenix,33.49573839999999,-112.01481399999999,308,4.5,1.0,0.0,0.0,0.0,0.0,0.0,0.0,0.0,0.0,0.0,414,2.6765475597906683
J07TDs6qnTIaxm48EL1cKQ,Hula's Modern Tiki,Phoenix,33.506199,-112.074269,904,4.0,1.0,0.0,0.0,0.0,0.0,0.0,0.0,0.0,0.0,0.0,415,2.4556826204093785
wERcL1KznuTgfltSKQt_jg,Zipps Sports Grill,Phoenix,33.5230997097,-112.04928185200001,175,3.0,1.0,0.0,0.0,1.0,1.0,0.0,0.0,0.0,0.0,0.0,416,2.138143888703559
ZHQU79PMUGCX0fEoyCcWlw,Caribbean Spice,Phoenix,33.3779782868,-111.936617212,190,3.5,1.0,0.0,0.0,0.0,0.0,0.0,0.0,0.0,0.0,0.0,417,2.3553571878063586
Z7nGSKvjmHNRkXtoMxA3Jw,Logan's Roadhouse,Phoenix,33.7124261365,-112.112801671,159,3.0,1.0,0.0,0.0,1.0,1.0,0.0,0.0,0.0,0.0,0.0,418,1.7358964420662686
5j2ugUALtjsa2nkV1YGq5Q,House Modern Sushi Restaurant,Phoenix,33.3846485,-111.80274550000001,222,4.0,1.0,0.0,0.0,0.0,0.0,0.0,0.0,0.0,0.0,0.0,419,2.5189910416356267
rgTcICdtCXoNXc71Z7-t5g,Flamingo Palace,Phoenix,33.6418065,-112.0694059,164,3.5,1.0,0.0,0.0,0.0,0.0,0.0,0.0,0.0,0.0,0.0,420,2.3371080064324707
_B3jnaQVtDXqydea1y92fQ,Texas Roadhouse,Phoenix,33.578692,-112.11820990000001,162,4.0,1.0,0.0,0.0,0.0,0.0,0.0,0.0,0.0,0.0,0.0,421,2.241564043738554
nzV7HlERvD_v1DEfL_oiGQ,Pita Jungle,Phoenix,33.3194631349,-111.874286413,341,4.0,1.0,0.0,0.0,0.0,0.0,0.0,0.0,0.0,0.0,0.0,422,2.4218728223033414
gRMYm-CeEdjXtaQcVo8vsw,Ryu Sushi & Teppanyaki,Phoenix,33.3049033,-111.7560853,145,4.0,1.0,0.0,0.0,0.0,0.0,0.0,0.0,0.0,0.0,0.0,423,2.470091373860244
vrpW_ZIjHvsAX3ByyeHjCA,Caffe Boa Ahwatukee,Phoenix,33.3476259,-111.97602649999999,135,3.5,1.0,0.0,0.0,0.0,0.0,0.0,0.0,0.0,0.0,0.0,424,2.343083552533159
UNfiku8qEyvGYjPK7w_gxQ,Gertrude's,Phoenix,33.4620644326,-111.94507007700001,283,3.5,1.0,0.0,0.0,0.0,0.0,0.0,0.0,1.0,0.0,0.0,425,2.2444055008603057
GqjC12LAufljzZmMcPSPJw,The Gilbert House,Phoenix,33.343131,-111.78940800000001,217,4.0,1.0,0.0,0.0,0.0,0.0,0.0,0.0,0.0,0.0,0.0,426,2.3331016922258376
seYvTmOZGJ2IAMdfQa8pkg,Urban Beans Cafe & Bar,Phoenix,33.4885590269,-112.06533342700001,320,4.0,1.0,0.0,0.0,1.0,1.0,0.0,0.0,1.0,0.0,0.0,427,2.441735011506694
Wc9UpJhOcdSj7olZkz7SJA,The Stand,Phoenix,33.4953994751,-112.00524902299999,645,4.0,1.0,0.0,0.0,0.0,0.0,0.0,0.0,0.0,0.0,0.0,428,2.4943812880807577
0C1ME-oi2GtsHr8xsV9fsA,Cyclo Vietnamese Cuisine,Phoenix,33.306501000000004,-111.875221,210,4.0,1.0,0.0,0.0,0.0,0.0,0.0,0.0,0.0,0.0,0.0,429,2.12639901895148
OgJ0KxwJcJ9R5bUK0ixCbg,Lux Central,Phoenix,33.5005972575,-112.07423717,1533,4.5,1.0,0.0,0.0,1.0,1.0,0.0,0.0,1.0,0.0,0.0,430,2.6154659205321042
aQojV_Rap30A1SB7x31XCQ,Lola,Phoenix,33.5095175,-112.06387360000001,66,3.5,0.0,0.0,0.0,0.0,0.0,0.0,0.0,1.0,0.0,0.0,431,2.2788260720471443
mXyLqsbe7FT1X8ZFOP8WpQ,Blue 32 Sports Grill,Phoenix,33.307307,-111.7573862,277,4.0,1.0,0.0,0.0,1.0,1.0,0.0,0.0,0.0,0.0,0.0,432,2.4397233017059117
dYU5hXVyPsm7C-T-13I_YQ,Orient Sushi Grill,Phoenix,33.349441,-111.8212717,155,4.0,1.0,0.0,0.0,0.0,0.0,0.0,0.0,0.0,0.0,0.0,433,2.301574046573192
atNpoWy_XrhT9EUIEP6azg,Metro Brasserie & Bar,Phoenix,33.498915000000004,-111.92825800000001,77,3.5,1.0,0.0,0.0,0.0,0.0,0.0,0.0,0.0,0.0,0.0,434,2.2263996601095313
tYYJYqbw1zasFUCqrkawKQ,Eagles Buffet,Phoenix,33.454427,-111.885598,83,3.5,1.0,0.0,0.0,0.0,0.0,0.0,0.0,0.0,0.0,0.0,435,2.179767895586747
axi57Y3h5c8BxM1Xyj0KBw,Grimaldi's Coal Brick-Oven Pizza,Phoenix,33.3095749752,-111.743795679,293,4.0,1.0,0.0,0.0,0.0,0.0,0.0,0.0,0.0,0.0,0.0,436,2.362255164456868
BgQ5ob0QiZfO5YbgI7VyFw,Blue Adobe Grille,Phoenix,33.418372,-111.84035700000001,450,4.0,1.0,0.0,0.0,1.0,1.0,0.0,0.0,0.0,0.0,0.0,437,2.4018468385391296
63bHLJUomC22Xdm3IjgBtw,Krua Thai Cuisine,Phoenix,33.6395560264,-112.04729948399999,228,4.0,1.0,0.0,0.0,0.0,0.0,0.0,0.0,0.0,0.0,0.0,438,2.3140971317914367
5euk5_UKqnAWcrbOPNYt0g,Chanpen Thai Cuisine,Phoenix,33.378628300500004,-111.976940357,167,4.5,1.0,0.0,0.0,0.0,0.0,0.0,0.0,0.0,0.0,0.0,439,2.585408578862061
BBFg2FmyimjiR27jO0dpQg,Jim's Burgers and Eggs,Phoenix,33.6238487,-112.42510690000002,329,2.5,1.0,0.0,0.0,0.0,0.0,0.0,0.0,0.0,0.0,0.0,440,1.7176007931335115
-Oj_rs84KRFOTtbeQXPB7Q,Red Kimchi Korean Restaurant,Phoenix,33.4643735,-111.9275459,96,3.0,1.0,0.0,0.0,0.0,0.0,0.0,0.0,0.0,0.0,0.0,441,1.901773820472157
yNBVOKSZN_AIjSJdhF_rqA,Garbanzo Mediterranean Grill,Phoenix,33.5992760512,-111.98354803,114,3.5,1.0,0.0,0.0,0.0,0.0,0.0,0.0,0.0,0.0,0.0,442,2.321726422446686
tYdVqMv76L6UykoHSOE8Cw,Rhythm Room,Phoenix,33.4947113,-112.0603348,108,4.0,0.0,0.0,0.0,1.0,1.0,0.0,0.0,0.0,1.0,0.0,443,2.5412943269708568
N5mU4iB5jCy7B4re_i2jIQ,Apple Store,Phoenix,33.3113777,-111.7435837,100,3.5,0.0,1.0,0.0,0.0,0.0,0.0,0.0,0.0,0.0,0.0,444,2.516513348916751
9yESUcIVarhYEabIMj844Q,Culinary Dropout,Phoenix,33.5194664,-112.0653473,350,3.5,1.0,0.0,0.0,1.0,1.0,0.0,0.0,0.0,0.0,0.0,445,2.275408161838326
uWTTj8q4FVRkXgGHOnfVSg,Shane's Rib Shack,Phoenix,33.7116116408,-112.111329517,91,3.5,1.0,0.0,0.0,0.0,0.0,0.0,0.0,0.0,0.0,0.0,446,1.9283693063297105
f-v1fvtnbdw_QQRsCnwH-g,Fractured Prune Doughnuts,Phoenix,33.5349973245,-112.260996776,159,4.0,1.0,0.0,0.0,0.0,0.0,0.0,0.0,1.0,0.0,0.0,447,2.4744294451495694
p3lATlh-DKgGMZyzMfp-Ng,Smashburger,Phoenix,33.7151321,-112.1130676,109,3.5,1.0,0.0,0.0,0.0,0.0,0.0,0.0,0.0,0.0,0.0,448,2.0813794175899694
V7nossAF0dFj_mSPYj6SSQ,Buffalo Wild Wings,Phoenix,33.33169,-111.791293,160,3.0,1.0,0.0,0.0,1.0,1.0,0.0,0.0,0.0,0.0,0.0,449,2.012923462731276
URWi21IF_ODa88EGiKWtwg,Pinnacle Peak,Phoenix,33.730907,-111.865007,106,4.5,0.0,0.0,0.0,0.0,0.0,1.0,0.0,0.0,0.0,0.0,450,2.735925149226748
-Ucy8i4uc_OzN8y5fkGVaQ,Taliesin West,Phoenix,33.606258000000004,-111.84500600000001,205,4.5,0.0,0.0,0.0,0.0,0.0,0.0,0.0,0.0,1.0,1.0,451,2.8384562599449836
oCwJdiYhZS8VM5_LgmQP0g,Arriba Mexican Grill,Phoenix,33.298019000000004,-111.74436999999999,152,2.5,1.0,0.0,0.0,0.0,0.0,0.0,0.0,0.0,0.0,0.0,452,1.699619288641578
J5ebC7fKqrSF8KuS8d6hgw,Sierra Bonita Grill,Phoenix,33.537786,-112.064608,304,4.0,1.0,0.0,0.0,1.0,1.0,0.0,0.0,0.0,0.0,0.0,453,2.546830407095549
fnaDx7UD4MiodQlgYHDwsQ,Dragon Palace,Phoenix,33.6122924,-112.0123285,131,4.0,1.0,0.0,0.0,0.0,0.0,0.0,0.0,0.0,0.0,0.0,454,2.4261469658267494
HpRsWkYHu-pumsZ4O_Linw,The Habit Burger Grill,Phoenix,33.5380162,-112.063202,177,4.0,1.0,0.0,0.0,0.0,0.0,0.0,0.0,0.0,0.0,0.0,455,2.4376328437150723
jSfnItqaOnEp2nenVF7fCg,Amuse Bouche,Phoenix,33.6404393425,-112.42560266,151,4.0,1.0,0.0,0.0,0.0,0.0,0.0,0.0,0.0,0.0,0.0,456,2.278810388460265
13yPeHmaFredWWmHT5OPTg,Paradise Bakery & Cafe,Phoenix,33.3197244,-111.8901747,72,3.0,1.0,0.0,0.0,0.0,0.0,0.0,0.0,0.0,0.0,0.0,457,1.9650115215083372
Wi1C9IC7-xcA1a91FtQwog,SoZo Coffeehouse,Phoenix,33.333428943,-111.860717305,126,4.0,0.0,0.0,0.0,1.0,0.0,0.0,0.0,1.0,1.0,0.0,458,2.5738486359215087
rNqSjfRM09T-VOjRTAF66g,Phoenix Palace,Phoenix,33.3370652759,-111.87539551100001,290,3.5,1.0,0.0,0.0,0.0,0.0,0.0,0.0,0.0,0.0,0.0,459,2.3192465437564818
Gz9SlLqxS6wnxPvgdOQNrA,Bitter & Twisted Cocktail Parlour,Phoenix,33.4469954665,-112.073873096,513,4.0,1.0,0.0,0.0,1.0,1.0,0.0,0.0,0.0,0.0,0.0,460,2.5766470720707173
9Q1ZtzTPFWG4fJiFSko5Xg,Cantina Laredo,Phoenix,33.3076483663,-111.743852065,302,3.5,1.0,0.0,0.0,1.0,1.0,0.0,0.0,0.0,0.0,0.0,461,2.208316921727588
P4lcAvH_JqOIUPyNE5LoJA,The Spot,Phoenix,33.3227291327,-111.720303297,141,3.0,1.0,0.0,0.0,0.0,0.0,0.0,0.0,0.0,0.0,0.0,462,1.9559149786292398
PERCOYjFcIkwTaqOWz9G6w,Fibber Magees,Phoenix,33.348867999999996,-111.8745999,193,4.0,1.0,0.0,0.0,1.0,1.0,0.0,0.0,0.0,0.0,0.0,463,2.3727208644208266
ovtlrcsVRlgZZQUlHs_ovw,Vogue Bistro,Phoenix,33.6078713039,-112.392598819,290,3.5,1.0,0.0,0.0,0.0,0.0,0.0,0.0,0.0,0.0,0.0,464,2.1324123860112665
wTjvgkUJMVWrYed9mXdQjg,North Italia,Phoenix,33.5090310837,-111.99491893,507,4.0,1.0,0.0,0.0,0.0,0.0,0.0,0.0,0.0,0.0,0.0,465,2.5055112025678428
rnBffgr3QiXUpKef2YFScg,Culver's,Phoenix,33.5799631,-112.1214539,82,3.5,1.0,0.0,0.0,0.0,0.0,0.0,0.0,0.0,0.0,0.0,466,2.3131942355309447
2m2O7o-E_jYvgvdkT6x_lA,Golden Donuts & Smoothies,Phoenix,33.3215191425,-111.875648126,71,4.0,1.0,0.0,0.0,0.0,0.0,0.0,0.0,0.0,0.0,0.0,467,2.366654232971872
nBwOIq5KI-zmxp061dTmgw,Chen & Wok,Phoenix,33.531338,-112.0645195,117,3.5,1.0,0.0,0.0,0.0,0.0,0.0,0.0,0.0,0.0,0.0,468,2.169458555209164
Yw3CxAmLGzGfTOpvEjWMLQ,Baker Nursery,Phoenix,33.4886988,-111.99551029999999,77,4.5,0.0,1.0,0.0,0.0,0.0,0.0,0.0,0.0,0.0,0.0,469,2.9774125629136843
wrhPNdPh0FfSv3DMS0obhw,OdySea Aquarium,Phoenix,33.5545531,-111.8760438,220,2.5,0.0,0.0,0.0,0.0,0.0,1.0,0.0,0.0,1.0,0.0,470,1.6995974037338177
2iLeiQ4OCJVwfodR9egMag,Lucky Strike,Phoenix,33.4474844,-112.07463030000001,191,3.5,1.0,0.0,0.0,1.0,1.0,1.0,0.0,0.0,0.0,0.0,471,2.3714859910698527
4p6Wce7Ed707QS2-yQkvZw,Kitchen 56,Phoenix,33.4885902682,-111.960350202,279,3.5,1.0,0.0,0.0,0.0,0.0,0.0,0.0,0.0,0.0,0.0,472,2.1595314809818835
I4EmpNOW7zCcx7fUnQ9ixg,Saigon Kitchen,Phoenix,33.638203831300004,-112.363443375,343,4.0,1.0,0.0,0.0,0.0,0.0,0.0,0.0,0.0,0.0,0.0,473,2.4875363759426086
RPO5ISR18Xllgk9ahdPepA,Tarbell's,Phoenix,33.509127500000005,-112.01244340000001,272,4.5,1.0,0.0,0.0,1.0,1.0,0.0,0.0,0.0,0.0,0.0,474,2.670988626486946
8-_jXGGDFPFAPB4r1x-81w,The Yard,Phoenix,33.519553,-112.0651591,454,3.5,1.0,0.0,0.0,0.0,0.0,0.0,0.0,0.0,0.0,0.0,475,2.2008522892634237
FJrI8DmhZX55GLS2eWasZA,The Greek Pita,Phoenix,33.7110853771,-112.11144174,122,4.0,1.0,0.0,0.0,0.0,0.0,0.0,0.0,0.0,0.0,0.0,476,2.3670041519041893
gXbDw-Rxq4feDnUWqlFDyQ,Social Box Neighborhood Eatery,Phoenix,33.326858213,-111.858325079,149,3.0,1.0,0.0,0.0,1.0,1.0,0.0,0.0,0.0,0.0,0.0,477,2.075911823656685
8R_oemw4rNjJL6sd40O_oQ,Over Easy,Phoenix,33.495514,-111.979848,570,3.5,1.0,0.0,0.0,0.0,0.0,0.0,0.0,0.0,0.0,0.0,478,2.113687461481541
VsxfPc4kbDuvyP4HTsqRBQ,Red Robin Gourmet Burgers,Phoenix,33.638222,-112.3618699,101,3.0,1.0,0.0,0.0,0.0,0.0,0.0,0.0,0.0,0.0,0.0,479,1.8068997476024102
RtXj1StQUbCMEmxRR10Bqg,Harkins Theatres SanTan Village 16,Phoenix,33.3111103,-111.74052379999999,84,4.0,0.0,0.0,0.0,0.0,0.0,0.0,0.0,0.0,1.0,0.0,480,2.6216576611282796
YJ_nOxPvADRDVRpNi3WSCw,Red Robin Gourmet Burgers,Phoenix,33.7120374706,-112.112244866,137,3.0,1.0,0.0,0.0,0.0,0.0,0.0,0.0,0.0,0.0,0.0,481,2.0763968310956136
N3GQ4GhQviglogQR1dPNgg,Frasher's Smokehouse,Phoenix,33.495636,-112.01189709999998,176,4.0,1.0,0.0,0.0,0.0,0.0,0.0,0.0,0.0,0.0,0.0,482,2.216049087006911
-qb_3LLSnBcHA6zc8NRSxQ,Rio Mirage Cafe,Phoenix,33.6374267824,-112.358839394,185,3.5,1.0,0.0,0.0,0.0,0.0,0.0,0.0,0.0,0.0,0.0,483,2.047318776809426
6We2O5X62J_gduXU7jvf8w,Spinato's Pizzeria,Phoenix,33.3057367,-111.9784297,325,4.0,1.0,0.0,0.0,0.0,0.0,0.0,0.0,0.0,0.0,0.0,484,2.587439874697268
GxSxxnnUkLJrfR2aznPLPg,Seksun Sushi,Phoenix,33.32013,-111.862674,132,3.5,1.0,0.0,0.0,0.0,0.0,0.0,0.0,0.0,0.0,0.0,485,2.07136943262446
5aRyuqJZSGp1fNXHQHMLjg,Mamma Mia Brick Oven Pizza & Pasta,Phoenix,33.4951157,-111.99676629999999,204,4.0,1.0,0.0,0.0,0.0,0.0,0.0,0.0,0.0,0.0,0.0,486,2.4363760915514856
GqGVAE3kbEW46FU1LydVUg,On The Border Mexican Grill & Cantina,Phoenix,33.3193099,-111.97575590000001,121,3.0,1.0,0.0,0.0,0.0,0.0,0.0,0.0,0.0,0.0,0.0,487,1.8848083768690247
3ug1xM71zxibq5RETXCi4Q,South Mountain Park,Phoenix,33.34697,-112.08460079999999,193,4.5,0.0,0.0,0.0,0.0,0.0,1.0,0.0,0.0,0.0,0.0,488,2.7484895033129
tIauOelAC3BZk_xhMoDBUg,Someburros,Phoenix,33.377697734,-111.93888556700001,204,3.5,1.0,0.0,0.0,0.0,0.0,0.0,0.0,0.0,0.0,0.0,489,2.198013846827089
krCiaZqjU2CeOfwoJWctDg,AMC Deer Valley 30,Phoenix,33.666203479699995,-112.124009225,97,3.0,0.0,0.0,0.0,0.0,0.0,0.0,0.0,0.0,1.0,0.0,490,2.0749811638667977
8EvgKu_VpVXJ0KUvrxS7BA,Sardella's Pizza & Wings,Phoenix,33.65596,-112.09849399999999,82,4.0,1.0,0.0,0.0,0.0,0.0,0.0,0.0,0.0,0.0,0.0,491,2.4765320621928555
3x45Q9c5G6VBicedNKrXxQ,Pita Jungle,Phoenix,33.3172434,-111.97651640000001,225,4.0,1.0,0.0,0.0,0.0,0.0,0.0,0.0,0.0,0.0,0.0,492,2.5139753175147748
DPZBuTuL7w5MVxsCEyQudQ,Fry's Electronics,Phoenix,33.3791142448,-111.97145709899999,211,2.5,0.0,1.0,0.0,0.0,0.0,0.0,0.0,0.0,0.0,0.0,493,1.7784590468049262
ojGCRzEym2W3tSTo69fhxA,The Rogue Tomato,Phoenix,33.6527858195,-112.18476811,256,4.0,1.0,0.0,0.0,0.0,0.0,0.0,0.0,0.0,0.0,0.0,494,2.292278998672343
m8vlPOwvw__LsX1KfD56IA,Total Wine & More,Phoenix,33.643445,-112.22093100000001,75,4.0,0.0,1.0,0.0,0.0,0.0,0.0,0.0,0.0,0.0,0.0,495,2.7201545969839134
IG8nu82ybIyAuf8pZHcV5w,Aj's Fine Foods,Phoenix,33.666589,-112.205408,85,3.5,0.0,1.0,0.0,0.0,0.0,0.0,0.0,0.0,0.0,0.0,496,2.4185595471087757
aP2ZadiZMZvIXyikcNfQPA,Goldie's Neighborhood Sports Cafe,Phoenix,33.5747610515,-111.861827374,142,3.5,1.0,0.0,0.0,1.0,1.0,0.0,0.0,0.0,0.0,0.0,497,2.27080938277142
AabR8NEwbwoGhQxJohs0OQ,JP Pancake,Phoenix,33.3776857,-111.7528824,169,3.5,1.0,0.0,0.0,0.0,0.0,0.0,0.0,0.0,0.0,0.0,498,2.00667170972638
VzSUgIOcyO7JmTwYDnyivQ,Flo's,Phoenix,33.6211202213,-111.873951123,273,3.5,1.0,0.0,0.0,0.0,0.0,0.0,0.0,0.0,0.0,0.0,499,2.2363656447540983
OwZM33ZI8LZVknaLICWIhw,ZK Grill,Phoenix,33.624424299999994,-111.9784424,170,4.0,1.0,0.0,0.0,0.0,0.0,0.0,0.0,0.0,0.0,0.0,500,2.3874231484906234
mj_E2SThbggt-FyUaE1DQg,Essence Bakery Cafe,Phoenix,33.4952835,-111.9986481,184,4.0,1.0,0.0,0.0,0.0,0.0,0.0,0.0,1.0,0.0,0.0,501,2.540595525316307
AMM3qOH9DUQzJHm9Q3vHag,Red Wok Buffet,Phoenix,33.480827000000005,-112.007051,76,3.0,1.0,0.0,0.0,0.0,0.0,0.0,0.0,0.0,0.0,0.0,502,2.0815055665330355
VKVDDHKtsdrnigeIf9S8RA,The Nosh Cafe,Phoenix,33.3308508709,-111.978642111,186,4.0,1.0,0.0,0.0,0.0,0.0,0.0,0.0,1.0,0.0,0.0,503,2.463760525111793
8rlTOw0IA1TENURMBJpaXw,Morning Glory Cafe,Phoenix,33.3911323993,-112.01653804200001,241,4.0,1.0,0.0,0.0,0.0,0.0,0.0,0.0,0.0,0.0,0.0,504,2.4406904172064454
mygLP5-SCnQwIev6LU9gWg,George's Famous Gyros,Phoenix,33.4517119,-111.9166747,287,4.5,1.0,0.0,0.0,0.0,0.0,0.0,0.0,0.0,0.0,0.0,505,2.603757227564807
Tw3miGKZHtmxmaQZIYFRrA,Federal Pizza,Phoenix,33.5135447,-112.0740853,641,4.5,1.0,0.0,0.0,0.0,0.0,0.0,0.0,0.0,0.0,0.0,506,2.6403813988010363
eZQbDYQTZk0_cBroVxnPWg,Siu Wok,Phoenix,33.47907,-112.073306,148,3.5,1.0,0.0,0.0,0.0,0.0,0.0,0.0,0.0,0.0,0.0,507,2.2924789314329206
z_dSEPKwDL9Vtw1LrAAHWQ,Rock Bottom,Phoenix,33.638668,-112.22337399999999,184,3.5,1.0,0.0,0.0,1.0,1.0,0.0,0.0,0.0,0.0,0.0,508,2.0126774505769465
DHl1cUYjLJqpqYiHdXbnqg,Walmart Supercenter,Phoenix,33.479006899999995,-112.00081340000001,110,1.5,0.0,1.0,0.0,0.0,0.0,0.0,1.0,0.0,0.0,0.0,509,1.0393030568957968
YwLZ6RDKKhPAoAOP5m_elA,Five Guys Burgers and Fries,Phoenix,33.318979999999996,-111.97993000000001,82,3.5,1.0,0.0,0.0,0.0,0.0,0.0,0.0,0.0,0.0,0.0,510,2.2369921941413455
IsoLzudHC50oJLiEWpwV-w,Chelsea's Kitchen,Phoenix,33.5112538,-111.9956517,1012,4.0,1.0,0.0,0.0,0.0,0.0,0.0,0.0,0.0,0.0,0.0,511,2.549432496865731
ZO3ihx5FOObI_uCgin4x8w,On The Border Mexican Grill & Cantina,Phoenix,33.637677000000004,-112.22666299999999,124,3.0,1.0,0.0,0.0,0.0,0.0,0.0,0.0,0.0,0.0,0.0,512,1.83732084182511
Rg4FHrDOD2DJeDY_khy-0w,Pei Wei,Phoenix,33.330043100000005,-111.79093590000002,87,3.0,1.0,0.0,0.0,0.0,0.0,0.0,0.0,0.0,0.0,0.0,513,1.9828140627949666
hy5bDUPEODQ4ESiHHMu9aQ,The Madison Improvement Club,Phoenix,33.4954526514,-112.00005483,93,4.5,0.0,0.0,0.0,0.0,0.0,1.0,0.0,0.0,0.0,0.0,514,2.7254297571251493
7cK9uEV09iPmsTqOqmY3kQ,La Grande Orange Pizzeria,Phoenix,33.5020532515,-111.995780221,653,4.5,1.0,0.0,0.0,0.0,0.0,0.0,0.0,0.0,0.0,0.0,515,2.6577146590824983
pWffwFHO7Awb4bULH-XoDQ,Peoria Sports Complex,Phoenix,33.63121470000001,-112.2336055,97,4.5,0.0,0.0,0.0,0.0,0.0,1.0,0.0,0.0,1.0,0.0,516,2.5577513260560996
bjrPt4DN1r4HpiR0Y8ofvg,Black Cat Coffee House,Phoenix,33.4953171458,-111.979826864,143,4.0,1.0,0.0,0.0,0.0,0.0,0.0,0.0,1.0,0.0,0.0,517,2.498144214222296
TT2bNjvnVNFOanDNYnAffQ,Raising Cane's,Phoenix,33.479938800000006,-111.98837240000002,143,3.5,1.0,0.0,0.0,0.0,0.0,0.0,0.0,0.0,0.0,0.0,518,2.173280922331247
LXheNwqZPoXuXNNeP1sNew,Humble Pie,Phoenix,33.627164,-112.236954,175,3.5,1.0,0.0,0.0,0.0,0.0,0.0,0.0,0.0,0.0,0.0,519,2.1186765815844013
GqWBT6OcQ9FXTyQ3eegpZg,That's a Wrap,Phoenix,33.5095,-112.063826,99,4.0,1.0,0.0,0.0,0.0,0.0,0.0,0.0,0.0,0.0,0.0,520,2.580777311312842
7qo6rqDjlHds8ObxzxBD4A,Brooklyn V's Pizza,Phoenix,33.3369592,-111.77133789999999,236,4.5,1.0,0.0,0.0,0.0,0.0,0.0,0.0,0.0,0.0,0.0,521,2.4404706345597242
pwablDuLsQOdpHAEcNFtww,Abuelo's,Phoenix,33.6332373212,-112.23757267,275,3.5,1.0,0.0,0.0,0.0,0.0,0.0,0.0,0.0,0.0,0.0,522,2.226438687679184
jK9J9HimEchVs0-dC-G-fg,Sweet Tomatoes,Phoenix,33.6375975506,-112.2223645,95,3.5,1.0,0.0,0.0,0.0,0.0,0.0,0.0,0.0,0.0,0.0,523,2.076353257887424
vJaL_UtIRkpmczGrwLSs1Q,Burger 21,Phoenix,33.319973795100005,-111.89019459200001,121,3.5,1.0,0.0,0.0,0.0,0.0,0.0,0.0,0.0,0.0,0.0,524,2.2557848979283306
oa52t2Nfb7sOCqJE5M5hzg,Rock Lobster,Phoenix,33.2611752,-111.88407250000002,252,4.0,1.0,0.0,0.0,0.0,0.0,0.0,0.0,0.0,0.0,0.0,525,2.1442208389828274
W5l5_CmHd-n1CDTHdEkYTw,Pita Heaven,Phoenix,33.306806,-111.88557,115,3.5,1.0,0.0,0.0,0.0,0.0,0.0,0.0,0.0,0.0,0.0,526,2.171536314558133
4gXdyihRiytmXEAfqLNMBw,Babbo Italian Eatery,Phoenix,33.638737899999995,-112.4198142,242,4.0,1.0,0.0,0.0,0.0,0.0,0.0,0.0,0.0,0.0,0.0,527,2.3128519548868
g6HKSMyz-bzmLJvsJILOJQ,Chick-fil-A,Phoenix,33.63584576,-112.23298510000001,80,4.5,1.0,0.0,0.0,0.0,0.0,0.0,0.0,0.0,0.0,0.0,528,2.6491942661843937
IALVdIEdp8n6aJed1hBGhg,Bosa Donuts,Phoenix,33.466193,-111.91982900000001,167,4.0,1.0,0.0,0.0,0.0,0.0,0.0,0.0,0.0,0.0,0.0,529,2.672033924767397
6oKZoCI_0ePyzfRqSFMBig,Roy's Restaurant,Phoenix,33.3194145644,-111.965975534,290,4.0,1.0,0.0,0.0,0.0,0.0,0.0,0.0,0.0,0.0,0.0,530,2.473801240136472
vNwj8u1KbnKPQFMTd3TDWw,Top Shelf Mexican Food & Cantina,Phoenix,33.6252489,-112.1298368,86,3.0,1.0,0.0,0.0,0.0,0.0,0.0,0.0,0.0,0.0,0.0,531,1.9013641856853878
d7ozMWbBwcFOkHM3zmktfA,Ahi Revolving Sushi,Phoenix,33.332296899999996,-111.791152,158,3.0,1.0,0.0,0.0,0.0,0.0,0.0,0.0,0.0,0.0,0.0,532,1.6658072722783328
tFcmrGLZNEymSnijoTPmqw,Desert Jade,Phoenix,33.494918,-112.01226299999999,178,4.0,1.0,0.0,0.0,0.0,0.0,0.0,0.0,0.0,0.0,0.0,533,2.357205053185872
oGASRzKGpuiP12ilQH_nKg,Haus Murphy's,Phoenix,33.5382772,-112.18298200000001,479,4.0,1.0,0.0,0.0,0.0,0.0,0.0,0.0,0.0,0.0,0.0,534,2.361260186034931
r8764MtYyt8JhxMvrfM_xQ,Vintage 95,Phoenix,33.30209310000001,-111.8426128,305,4.0,1.0,0.0,0.0,1.0,1.0,0.0,0.0,0.0,0.0,0.0,535,2.5186356068014772
rw8YDgz69vqdeu-oLR4W8Q,Bass Pro Shops,Phoenix,33.436690999999996,-111.8666152,161,4.0,0.0,1.0,0.0,0.0,0.0,0.0,0.0,0.0,0.0,0.0,536,2.3892128220008164
GpX1PmgplBrG_DLiJVDC-g,Padre's Modern Mexican Cuisine,Phoenix,33.5093453,-112.0588374,138,4.0,1.0,0.0,0.0,1.0,1.0,0.0,0.0,0.0,0.0,0.0,537,2.3364938124020154
JBrBsKpw0bbXK5nlrXVOYQ,Anzios Italian Restaurant,Phoenix,33.5986481057,-112.12037371,224,4.0,1.0,0.0,0.0,0.0,0.0,0.0,0.0,0.0,0.0,0.0,538,2.3890433381795786
pa-C-Vsk9ntuXBGjTr0tBQ,P.croissants,Phoenix,33.349929100000004,-111.92994709999999,137,3.5,1.0,0.0,0.0,0.0,0.0,0.0,0.0,0.0,0.0,0.0,539,2.2566609143483927
nUfeYJ_YEaDzggPKnYry3g,Rancho de Tia Rosa,Phoenix,33.3664624,-111.7213145,256,3.5,1.0,0.0,0.0,0.0,0.0,0.0,0.0,0.0,0.0,0.0,540,2.1191775743550156
Gw-ozqLSHoP3BQPKaiXJGg,The Watershed,Phoenix,33.3756982,-111.9197979,267,3.0,1.0,0.0,0.0,1.0,1.0,0.0,0.0,0.0,1.0,0.0,541,2.096011627569227
LMdUoR00jPxQDWLYRq93FA,Quiessence Restaurant,Phoenix,33.3910264577,-112.016740994,197,3.5,1.0,0.0,0.0,1.0,1.0,0.0,0.0,0.0,0.0,0.0,542,2.723011544657903
aqLR6oUVsBw6wzoEFYR5Bw,Salon D'Shayn,Phoenix,33.4661047,-112.0821925,179,5.0,0.0,0.0,1.0,0.0,0.0,0.0,0.0,0.0,0.0,0.0,543,2.9332624104916696
emtAyZPvp_0b40levOzcnA,Blue Burrito Grille,Phoenix,33.582340897399995,-111.923882961,57,3.5,1.0,0.0,0.0,0.0,0.0,0.0,0.0,0.0,0.0,0.0,544,2.0047231079165977
wZRQxolIU7jNGoz2c-BkrA,Ono Hawaiian BBQ,Phoenix,33.6276482591,-111.887166873,64,3.5,1.0,0.0,0.0,0.0,0.0,0.0,0.0,0.0,0.0,0.0,545,2.126094678922037
QiWwJiV27YFscyJAkAyrtw,Caketini,Phoenix,33.50283710000001,-111.92941979999999,83,3.5,0.0,0.0,0.0,0.0,0.0,0.0,0.0,1.0,0.0,0.0,546,2.250326362036745
ZZxgrXYDC6RIPrWCl9kdjA,Elephant Bar Restaurant,Phoenix,33.6577429,-111.929248,100,3.5,1.0,0.0,0.0,1.0,1.0,0.0,0.0,0.0,0.0,0.0,547,2.0760174016066424
HGLMe4y0y_VsBkDLdpfBLA,Papi Chulo's Mexican Grill & Cantina,Phoenix,33.5109468,-111.9249216,181,3.0,1.0,0.0,0.0,0.0,0.0,0.0,0.0,0.0,0.0,0.0,548,2.013956159665904
TkoyGi8J7YFjA6SbaRzrxg,Ah-So,Phoenix,33.6377501,-112.1898243,139,4.0,1.0,0.0,0.0,0.0,0.0,0.0,0.0,0.0,0.0,0.0,549,2.609548445659489
3C5Z9homtzkWHouH2BHXYQ,Taco Guild,Phoenix,33.4877467396,-112.065664677,766,4.0,1.0,0.0,0.0,1.0,1.0,0.0,0.0,0.0,0.0,0.0,550,2.350540176566384
nveeiYhDhj0WJu1JUmx9fw,Rio Rico,Phoenix,33.363774220500005,-111.755379942,145,4.0,1.0,0.0,0.0,0.0,0.0,0.0,0.0,0.0,0.0,0.0,551,2.195737574876712
mPfdYJj4d5KBPINDkaZY-Q,Churn,Phoenix,33.513503641599996,-112.073389423,621,4.5,0.0,0.0,0.0,0.0,0.0,0.0,0.0,1.0,0.0,0.0,552,2.6797176716249176
R68SX1-FFLvv6BqsK9-Alw,So-Cal Fish Taco Company,Phoenix,33.354019,-111.789699,299,4.0,1.0,0.0,0.0,0.0,0.0,0.0,0.0,0.0,0.0,0.0,553,2.3282862416041747
Jol7cXrDmKKmu_V6qp4wMA,Al-Hana,Phoenix,33.4550162821,-112.038699851,74,4.0,1.0,0.0,0.0,0.0,0.0,0.0,0.0,0.0,0.0,0.0,554,2.518311824104734
fMtJHpD-l0GGFKr5xnbWnQ,NOSH Arizona,Phoenix,33.322376,-111.911819,110,4.0,1.0,0.0,0.0,1.0,1.0,0.0,0.0,0.0,1.0,0.0,555,2.431121016265306
Q_-AXvYax_kFkHx2KArhrw,Costco,Phoenix,33.4739239,-111.98450359999998,89,4.0,0.0,1.0,0.0,0.0,0.0,0.0,0.0,0.0,0.0,0.0,556,2.4842961031535276
yIiply1esvaWxY36vdh3wA,Los Dos Molinos,Phoenix,33.448716999999995,-112.059954,82,3.5,1.0,0.0,0.0,0.0,0.0,0.0,0.0,0.0,0.0,0.0,557,2.056972752279672
ROMFVEFKEYi7qhyITX6jfA,24 Carrots Juice Bar & Cafe,Phoenix,33.363419,-111.91305870000001,148,4.0,1.0,0.0,0.0,0.0,0.0,0.0,0.0,0.0,0.0,0.0,558,2.3545595489744016
wZukjLaf1V2dLRQap_Zriw,Postino East,Phoenix,33.3551422,-111.78995900000001,728,4.5,1.0,0.0,0.0,1.0,1.0,0.0,0.0,0.0,0.0,0.0,559,2.639672447495268
aIZQF2UCLv6ru-zsPK4H2Q,Texas BBQ House,Phoenix,33.399961,-112.02943490000001,305,4.5,1.0,0.0,0.0,0.0,0.0,0.0,0.0,0.0,0.0,0.0,560,2.614189089952464
AtSEe-B2mFmLFHBf4PLTrw,Wildflower Bread Company,Phoenix,33.3624661,-111.91262009999998,191,4.0,1.0,0.0,0.0,0.0,0.0,0.0,0.0,0.0,0.0,0.0,561,2.42676396729916
Ixu0ou1_5mpEZbBtYXW_LA,Chick-fil-A,Phoenix,33.62114137,-111.89221599999999,81,4.0,1.0,0.0,0.0,0.0,0.0,0.0,0.0,0.0,0.0,0.0,562,2.5008648154663304
kz7O0_o6WrDQk1Kl8dKeHQ,Stock & Stable,Phoenix,33.517894,-112.06556699999999,118,4.0,1.0,0.0,0.0,0.0,0.0,0.0,0.0,0.0,0.0,0.0,563,2.3969020379581596
v2p2jQ-FAse_FQI0LSh1pg,Pink Spot,Phoenix,33.480158,-112.07650500000001,123,4.0,1.0,0.0,0.0,0.0,0.0,0.0,0.0,1.0,0.0,0.0,564,2.412406023169467
vCcnawY4Q41A1rlnxKBzkA,Taqueria Mi Casita,Phoenix,33.336057919699996,-111.860583145,168,4.0,1.0,0.0,0.0,0.0,0.0,0.0,0.0,0.0,0.0,0.0,565,2.491598302022314
fbKoXozkAKDxoWg8eyQk9Q,Sportsman's Fine Wines & Spirits,Phoenix,33.5098759,-112.01247269999999,50,4.5,0.0,0.0,0.0,1.0,1.0,0.0,0.0,0.0,0.0,0.0,566,2.7247007871073086
Q6F59ID2Js8Sop2vRcVz-w,Sweet Tomatoes,Phoenix,33.3194479165,-111.983342171,85,3.5,1.0,0.0,0.0,0.0,0.0,0.0,0.0,0.0,0.0,0.0,567,2.0797169954150405
j9cVHTAIkliYQp4XoVcsnQ,The Harp Pub,Phoenix,33.3837049779,-111.756664664,169,3.0,1.0,0.0,0.0,1.0,1.0,0.0,0.0,0.0,0.0,0.0,568,1.9325999624146046
zJGtD3y-pAIGNId4codEEg,Otro Cafe,Phoenix,33.5253385734,-112.064487738,439,4.0,1.0,0.0,0.0,0.0,0.0,0.0,0.0,0.0,0.0,0.0,569,2.496698644149849
hTe5SavBjp3zRulupZSJew,NYPD Pizza,Phoenix,33.466062300000004,-112.0823273,111,3.5,1.0,0.0,0.0,0.0,0.0,0.0,0.0,0.0,0.0,0.0,570,2.2225213747237627
wJKTZXmoSO_4oGwbKfF4JQ,Native New Yorker,Phoenix,33.6403912,-112.1190581,51,2.5,1.0,0.0,0.0,0.0,0.0,0.0,0.0,0.0,0.0,0.0,571,1.8118070116289653
kj1p6NwUGROOoqNySf0I1Q,Yupha's Thai Kitchen,Phoenix,33.3478761,-111.90997800000001,488,4.0,1.0,0.0,0.0,0.0,0.0,0.0,0.0,0.0,0.0,0.0,572,2.5012783367633027
52sY8-9al5LJi475nNJkyQ,Raising Cane's,Phoenix,33.5818729,-112.11829879999999,160,3.5,1.0,0.0,0.0,0.0,0.0,0.0,0.0,0.0,0.0,0.0,573,2.0652782923382653
k1c_bC3DK6mKg797vH1T8w,Beckett's Table,Phoenix,33.494795816599996,-112.00160597700001,716,4.0,1.0,0.0,0.0,0.0,0.0,0.0,0.0,0.0,0.0,0.0,574,2.4992252030340194
4dw7ev_MWCgIlK3S2xJi-g,Haven Burgers,Phoenix,33.415557,-111.81804440000002,122,4.0,1.0,0.0,0.0,0.0,0.0,0.0,0.0,0.0,0.0,0.0,575,2.4618044332613107
dIqMQYs6tmowQUygS8sQ6A,JoBot Coffee & Diner,Phoenix,33.458356099999996,-112.06778349999999,432,4.0,1.0,0.0,0.0,0.0,0.0,0.0,0.0,1.0,0.0,0.0,576,2.3527025392416236
Xs2iTWxbczvfEapAFH3cyw,Perk Eatery,Phoenix,33.6241531356,-111.940520983,342,4.0,1.0,0.0,0.0,0.0,0.0,0.0,0.0,0.0,0.0,0.0,577,2.3106691570614886
lqCJiHlxzRpuYt-u_XQUvg,Cinemark Mesa 16,Phoenix,33.435465,-111.863027,130,4.0,0.0,0.0,0.0,0.0,0.0,0.0,0.0,0.0,1.0,0.0,578,2.526030313112334
I3STZd5iAvUL9MNLF_DUug,Blanco Tacos And Tequila,Phoenix,33.437068415300004,-111.999121635,292,3.5,1.0,0.0,0.0,0.0,0.0,0.0,0.0,0.0,0.0,0.0,579,2.0359174218619325
jOJaJatp88cqnkVo8D8RJg,Sakana Sushi & Grill,Phoenix,33.347684,-111.976156,345,3.5,1.0,0.0,0.0,0.0,0.0,0.0,0.0,0.0,0.0,0.0,580,2.3502278465685733
UCqWJWovgeelP1OUI_L90w,Chicago Hamburger Co,Phoenix,33.4947745,-112.0000425,309,4.0,1.0,0.0,0.0,0.0,0.0,0.0,0.0,0.0,0.0,0.0,581,2.491352502062335
W9y-Bl9030-rmfxSTmUD_g,Simi's Cafe,Phoenix,33.3788895537,-111.77975068299999,370,4.5,1.0,0.0,0.0,0.0,0.0,0.0,0.0,0.0,0.0,0.0,582,2.519023460095794
RHO331ipxuIYqvmn__Sxwg,Proof,Phoenix,33.731835,-111.852751,129,4.0,1.0,0.0,0.0,0.0,0.0,0.0,0.0,0.0,0.0,0.0,583,2.6488300899963098
m1BRMnrel42nz_qIPSBO9w,Keegan's Grill & Taproom Foothills,Phoenix,33.3192686115,-111.98223899999999,119,3.5,1.0,0.0,0.0,0.0,0.0,0.0,0.0,0.0,0.0,0.0,584,2.2405945293155565
k4XoJ6zl8LN50n_24wOI4g,Red Robin Gourmet Burgers,Phoenix,33.3099438139,-111.746379336,171,2.5,1.0,0.0,0.0,0.0,0.0,0.0,0.0,0.0,0.0,0.0,585,1.9435200631675418
4s_cPDS_AkLP1fXMJPqB2w,GOGI,Phoenix,33.3372575074,-111.875935793,200,4.0,1.0,0.0,0.0,0.0,0.0,0.0,0.0,0.0,0.0,0.0,586,2.5363050610872455
Xv3d5FLutLgrlNfcQ7gR-A,Dutch Bros Coffee,Phoenix,33.3940404,-111.939356,121,4.5,0.0,0.0,0.0,0.0,0.0,0.0,0.0,1.0,0.0,0.0,587,2.7890910034848817
YtUaJkgKc1pucwdSq_DQeQ,Tee Pee Mexican Food,Phoenix,33.4953735,-111.991616,320,3.0,1.0,0.0,0.0,0.0,0.0,0.0,0.0,0.0,0.0,0.0,588,1.9511138417954539
rW5N-fiNhqb-fR3bGqyPdg,Rosie McCaffrey's Irish Pub & Restaurant,Phoenix,33.5094076522,-112.06144634700001,274,3.5,1.0,0.0,0.0,1.0,1.0,0.0,0.0,0.0,0.0,0.0,589,2.306957274591655
I_a74zmgR-X03LsKISWPcg,Snoh Ice Shavery,Phoenix,33.5095292,-112.06095790000002,528,4.5,1.0,0.0,0.0,0.0,0.0,0.0,0.0,1.0,0.0,0.0,590,2.692820979512923
Ktia9NJfvxVxTLVcEnw9zQ,Carolina's Mexican Food,Phoenix,33.596832148800004,-112.03619848299999,371,4.0,1.0,0.0,0.0,0.0,0.0,0.0,0.0,0.0,0.0,0.0,591,2.4585997740360357
l-D0uS-tgmhkFpHKBXvPQA,Chino Bandido,Phoenix,33.304491999999996,-111.87363700000002,377,3.5,1.0,0.0,0.0,0.0,0.0,0.0,0.0,0.0,0.0,0.0,592,2.0495527631157224
csy-xJWM68SXabizUIhucA,Little Cleo's Seafood Legend,Phoenix,33.519577000000005,-112.065351,260,4.5,1.0,0.0,0.0,0.0,0.0,0.0,0.0,0.0,0.0,0.0,593,2.5062166987396233
tDYcVluqZwieulc1iqxGXg,Autumn Court,Phoenix,33.4954047,-112.0000395,159,3.5,1.0,0.0,0.0,0.0,0.0,0.0,0.0,0.0,0.0,0.0,594,2.044916710318609
0bF6jv97Z6VbruRpepUOcw,Cholla Prime Steakhouse & Lounge,Phoenix,33.4540376686,-111.885931685,145,4.5,1.0,0.0,0.0,1.0,1.0,0.0,0.0,0.0,0.0,0.0,595,2.9718768253996966
S37sKRRfkhFZRpxaYzWo_A,China Magic Noodle House,Phoenix,33.336076,-111.87435990000002,426,4.0,1.0,0.0,0.0,0.0,0.0,0.0,0.0,0.0,0.0,0.0,596,2.485921130788129
TEaBolNAkOdRm2gvIYz4OQ,Poncho's,Phoenix,33.3811211,-112.0736457,202,3.5,1.0,0.0,0.0,1.0,1.0,0.0,0.0,0.0,0.0,0.0,597,2.049727843307277
hDDh3dtuFZyty5KOUN0JmA,Gordon Biersch Brewery Restaurant,Phoenix,33.3113777,-111.7435837,210,3.0,1.0,0.0,0.0,0.0,0.0,0.0,0.0,0.0,0.0,0.0,598,2.0224347977343986
IzcL0KZPKqMbjoIaCmClog,Ben Avery Shooting Range,Phoenix,33.8042473,-112.14640179999999,65,4.0,0.0,0.0,0.0,0.0,0.0,1.0,0.0,0.0,0.0,0.0,599,2.469755739268686
5c19hhJGZ630iCxo5egLuA,Regal Cinemas Gilbert 14,Phoenix,33.329128999999995,-111.79526100000001,133,4.0,0.0,0.0,0.0,0.0,0.0,0.0,0.0,0.0,1.0,0.0,600,2.462950627092751
GdMRHtxg2oD5E2WzZccOqA,Iruna,Phoenix,33.4920804,-111.9255527,89,3.5,1.0,0.0,0.0,0.0,0.0,0.0,0.0,0.0,0.0,0.0,601,2.282434052181145
cOZLg1c-UcB2Yj3baQDKkA,The Keg Steakhouse + Bar,Phoenix,33.307846000000005,-111.74184,253,4.0,1.0,0.0,0.0,1.0,1.0,0.0,0.0,0.0,0.0,0.0,602,2.4376617170632158
RrZ2WUPuvCBAMIVC-ZYL-A,US Egg,Phoenix,33.6380805892,-112.067371952,165,4.0,1.0,0.0,0.0,0.0,0.0,0.0,0.0,0.0,0.0,0.0,603,2.2404779965687704
7tdVsSDXRKtLLC-fD1hJ-A,Nando's Mexican Cafe,Phoenix,33.3780619,-111.75544170000002,253,3.5,1.0,0.0,0.0,0.0,0.0,0.0,0.0,0.0,0.0,0.0,604,2.2070890772134466
KH9XgG2nt0G6bk8-NKkQQQ,Eastwind Sushi And Grill,Phoenix,33.3042957408,-111.840548017,105,4.0,1.0,0.0,0.0,0.0,0.0,0.0,0.0,0.0,0.0,0.0,605,2.200952811659921
ChZUym-m7ZcH_mfIlv2ckw,World Of Beer,Phoenix,33.3078223,-111.74355279999999,122,3.0,1.0,0.0,0.0,1.0,1.0,0.0,0.0,0.0,0.0,0.0,606,1.9570008326872732
r6apfvgfl9lCFEjpnXnnxg,zpizza,Phoenix,33.4500119,-112.0756189,125,3.5,1.0,0.0,0.0,0.0,0.0,0.0,0.0,0.0,0.0,0.0,607,2.2481566437623086
j0pppFcCeTnmBduZ30gGiA,Cafe Rio Mexican Grill,Phoenix,33.2977317,-111.7430061,139,3.0,1.0,0.0,0.0,0.0,0.0,0.0,0.0,0.0,0.0,0.0,608,1.9226255059417847
Er2XAYN8l1BadlYFwiPb9g,AZ Kabob House,Phoenix,33.6579412692,-111.931945892,190,4.5,1.0,0.0,0.0,0.0,0.0,0.0,0.0,0.0,0.0,0.0,609,2.728926242212778
sUAJOwb1yFaSDreFADEO5Q,Nunthaporn's Thai Cuisine,Phoenix,33.4148132752,-111.83220002799999,156,3.5,1.0,0.0,0.0,0.0,0.0,0.0,0.0,0.0,0.0,0.0,610,2.2382439659237057
JjV5cbvAL0h6q66IcBDOCA,Scottsdale Gun Club,Phoenix,33.620513,-111.89903799999999,183,4.0,0.0,1.0,0.0,0.0,0.0,1.0,0.0,0.0,0.0,0.0,611,2.5041831824556566
0CAzhX1w9qGD8iz4F8XZjQ,Irish Republic,Phoenix,33.3027643,-111.84235600000001,142,3.0,1.0,0.0,0.0,1.0,1.0,0.0,0.0,0.0,0.0,0.0,612,2.0305803457744944
wWDNwNb6ygJorKujOuifhA,Forno 301,Phoenix,33.458438199999996,-112.0780771,178,4.5,1.0,0.0,0.0,1.0,1.0,0.0,0.0,0.0,0.0,0.0,613,2.5592777317665725
jq9gzjKbVWgeMYzA0aFzxw,Lola Coffee,Phoenix,33.4589695,-112.07748670000001,275,4.5,0.0,0.0,0.0,0.0,0.0,0.0,0.0,1.0,0.0,0.0,614,2.6051190769209884
jsuUmIEefPjV__ads62Z5w,Dick's Hideaway,Phoenix,33.524170105900005,-112.047840594,633,4.5,1.0,0.0,0.0,1.0,1.0,0.0,0.0,0.0,0.0,0.0,615,2.606518822810775
8yAVuMwtijEosdjiCrtyXQ,Fired Pie,Phoenix,33.3202869,-111.89050490000001,404,4.5,1.0,0.0,0.0,0.0,0.0,0.0,0.0,0.0,0.0,0.0,616,2.6972799108177807
8BG2u8inkqzCb2tm6YlqDw,Kona Grill,Phoenix,33.3078070226,-111.742225886,232,3.5,1.0,0.0,0.0,0.0,0.0,0.0,0.0,0.0,0.0,0.0,617,2.185562288145424
-s_U95xEEmJu5GK-srqpUA,Chutney's Indian Cuisine,Phoenix,33.377403259299996,-111.908622742,214,3.5,1.0,0.0,0.0,0.0,0.0,0.0,0.0,0.0,0.0,0.0,618,2.527420686641801
FiEcKfGo-rbYyhoKHw_0MA,Tien Wong Hot Pot,Phoenix,33.33985,-111.86000200000001,73,3.5,1.0,0.0,0.0,0.0,0.0,0.0,0.0,0.0,0.0,0.0,619,2.4142882408156305
wHq1efQVz17338k_aUOX3w,Hob Nobs,Phoenix,33.465462,-112.07801699999999,229,4.0,1.0,0.0,0.0,0.0,0.0,0.0,0.0,1.0,0.0,0.0,620,2.256493530210789
XaPJUDiidOOdAMhTTIlTxw,The Whining Pig- Arcadia,Phoenix,33.4957219827,-112.000841742,150,4.5,0.0,0.0,0.0,1.0,1.0,0.0,0.0,0.0,0.0,0.0,621,2.65310779021319
nK4PaQEpSXW6-2F_hID6pg,La Stalla Cucina Rustica,Phoenix,33.3046882,-111.84237809999999,189,4.0,1.0,0.0,0.0,0.0,0.0,0.0,0.0,0.0,0.0,0.0,622,2.4857203935311887
DzVexh7EGld_2ziA1lRq9w,Smashburger,Phoenix,33.6297775,-111.88740990000002,118,3.5,1.0,0.0,0.0,0.0,0.0,0.0,0.0,0.0,0.0,0.0,623,2.2907615370245122
V45PfGw6FMrP4FmB8pFnIw,Hollywood Alley,Phoenix,33.379042999999996,-111.8910088,54,4.0,1.0,0.0,0.0,1.0,1.0,0.0,0.0,0.0,1.0,0.0,624,2.3459288942447687
dxvsOCvRPnHB6P3IN-KDuw,Sal's Gilbert Pizza,Phoenix,33.329013635500004,-111.79061203200001,291,4.0,1.0,0.0,0.0,0.0,0.0,0.0,0.0,0.0,0.0,0.0,625,2.4968781178213693
nXNv6jvbj7sl50w7NL6KlQ,Buffalo Wild Wings,Phoenix,33.636818718600004,-111.921058108,154,2.5,1.0,0.0,0.0,1.0,1.0,0.0,0.0,0.0,0.0,0.0,626,2.00849716579079
fT6Uwl6abRQfiNgxre_qbg,Cherryblossom Noodle Cafe,Phoenix,33.5098020416,-112.061086646,817,4.0,1.0,0.0,0.0,0.0,0.0,0.0,0.0,0.0,0.0,0.0,627,2.4488397508731947
-6tvduBzjLI1ISfs3F_qTg,Joyride Taco House,Phoenix,33.3549550783,-111.78972993,808,4.0,1.0,0.0,0.0,1.0,1.0,0.0,0.0,0.0,0.0,0.0,628,2.384288021337399
PpnHlk95jbeK261RHuXflw,Renegade Tap & Kitchen,Phoenix,33.5814339,-111.87953529999999,106,3.5,1.0,0.0,0.0,0.0,0.0,0.0,0.0,0.0,0.0,0.0,629,2.325809537374525
vUgCHg2pWUrbg_xrJZz6Lg,Desert Donuts,Phoenix,33.7998688808,-112.12764742600001,130,4.5,1.0,0.0,0.0,0.0,0.0,0.0,0.0,0.0,0.0,0.0,630,2.8629130662186766
eS29S_06lvsDW04wVrIVxg,Barrio Café,Phoenix,33.4790158,-112.0479886,1047,4.0,1.0,0.0,0.0,0.0,0.0,0.0,0.0,0.0,0.0,0.0,631,2.4137929345835705
mBeZ3dQzUPV60Oa26k3qHw,Harkins Theatres Park West 14,Phoenix,33.5546977093,-112.270335499,73,4.0,0.0,0.0,0.0,0.0,0.0,0.0,0.0,0.0,1.0,0.0,632,2.54328086691673
vrKcFQPxj1Zzyj93yl-t6g,Topgolf,Phoenix,33.3200849,-111.7415906,257,4.0,1.0,0.0,0.0,1.0,1.0,1.0,0.0,0.0,0.0,0.0,633,2.4922281395082178
hNsRj2nXuALlJS4Op-8MmA,Garage Wine and Tap,Phoenix,33.524075,-112.04841090000002,222,3.5,1.0,0.0,0.0,1.0,1.0,0.0,0.0,0.0,0.0,0.0,634,2.154020728059346
AyZePvrWz73d3B0hafFCKA,JT's Bar & Grill,Phoenix,33.494203999999996,-111.97661299999999,115,4.5,1.0,0.0,0.0,1.0,1.0,0.0,0.0,0.0,0.0,0.0,635,2.6216597223368927
EEGajOchS2BIZNvJcPK3uw,Crudo,Phoenix,33.494227102400004,-112.003112874,335,4.5,1.0,0.0,0.0,1.0,1.0,0.0,0.0,0.0,0.0,0.0,636,2.784738207808005
U4OLUFb9VxMmpMXm1ZF-cQ,Pho Chandler,Phoenix,33.2464189,-111.83933300000001,326,4.5,1.0,0.0,0.0,0.0,0.0,0.0,0.0,0.0,0.0,0.0,637,2.409137824413695
sm0stXMEmnR4fjAAVbCYtw,Two Hippies Gnarly Burger Joint,Phoenix,33.479766999999995,-111.99398300000001,132,4.0,1.0,0.0,0.0,0.0,0.0,0.0,0.0,0.0,0.0,0.0,638,2.4441831364660955
D3ehpx1uKG5aLuaJgztYDg,Solo Café Gourmet Coffee & Tea House,Phoenix,33.378062079,-111.938226379,196,4.5,0.0,0.0,0.0,0.0,0.0,0.0,0.0,1.0,0.0,0.0,639,2.55323604339434
7o2BZbRWeBIInSCf5b_SvA,D'Vine Bistro & Wine Bar,Phoenix,33.4676501,-111.68280800000001,114,4.0,1.0,0.0,0.0,1.0,1.0,0.0,0.0,0.0,0.0,0.0,640,2.4160751578753255
ept9mIlqGIsemr6w0RczaA,Pita Jungle,Phoenix,33.459014,-112.077468,303,3.5,1.0,0.0,0.0,0.0,0.0,0.0,0.0,0.0,0.0,0.0,641,2.4046310634537793
Pfi812k1E6TMnC1NRzH3Pg,Orange Sky,Phoenix,33.540285939,-111.86944146399999,326,4.0,1.0,0.0,0.0,0.0,0.0,0.0,0.0,0.0,0.0,0.0,642,2.397498709868583
mBzL2_AKRD5TFQwMA6Itdg,Lone Spur Cafe,Phoenix,33.551926347,-112.270015805,135,3.5,1.0,0.0,0.0,0.0,0.0,0.0,0.0,0.0,0.0,0.0,643,2.0852342768433894
g-I48SaHtdIGR5ZEoVeNFw,Sushi Ken,Phoenix,33.305739,-111.99223799999999,291,3.5,1.0,0.0,0.0,0.0,0.0,0.0,0.0,0.0,0.0,0.0,644,2.1920431996214127
hiMdQmnVXgp7DTCCj3pwdA,Joey's of Chicago,Phoenix,33.712245,-112.101899,68,3.5,1.0,0.0,0.0,0.0,0.0,0.0,0.0,0.0,0.0,0.0,645,2.240033201908419
Bt27M8L4lZfz3av3ZD6CWA,Target,Phoenix,33.639253924,-112.068919783,49,4.0,0.0,1.0,0.0,0.0,0.0,0.0,1.0,0.0,0.0,0.0,646,2.5137018759485703
Tl2nqtPXlLbAG3qkUYVM2g,Vincent's On Camelback,Phoenix,33.5102548,-111.9962632,124,4.0,1.0,0.0,0.0,0.0,0.0,0.0,0.0,0.0,0.0,0.0,647,2.4279058555572166
dUffgo9Lh_Vk9TLuFR5ywg,Oregano's Pizza Bistro,Phoenix,33.509480100000005,-112.06019640000001,417,4.0,1.0,0.0,0.0,0.0,0.0,0.0,0.0,0.0,0.0,0.0,648,2.320270336230091
vsFFbN71ehRCp46KeR5RdQ,Butterfield's Pancake House,Phoenix,33.5826876808,-111.922262657,592,4.5,1.0,0.0,0.0,0.0,0.0,0.0,0.0,0.0,0.0,0.0,649,2.5583361392858475
TXU6j2y9Nem41SxxUUgA6A,Blue 32 Sports Grill,Phoenix,33.6580797816,-111.932623367,115,3.5,1.0,0.0,0.0,0.0,0.0,0.0,0.0,0.0,0.0,0.0,650,2.3394448239955534
Ws8V970-mQt2X9CwCuT5zw,The Urban Tea Loft,Phoenix,33.302013,-111.84192,123,4.0,1.0,0.0,0.0,0.0,0.0,0.0,0.0,1.0,0.0,0.0,651,2.4985868351088723
26tPTT3jtCktaqowDEYSUA,Fat Straw,Phoenix,33.3108072,-111.7427097,129,4.0,0.0,0.0,0.0,0.0,0.0,0.0,0.0,1.0,0.0,0.0,652,2.628832798931867
ms7cmWkPiSBDTnz-1sv2kQ,Ticoz Latin Kitchen,Phoenix,33.511677977,-112.06534236600001,432,4.0,1.0,0.0,0.0,0.0,0.0,0.0,0.0,0.0,0.0,0.0,653,2.370163025789457
_gO1inMQhfXlK_S46SgGJA,Toby Keith's I Love This Bar & Grill,Phoenix,33.5523053,-112.27078519999999,161,2.0,1.0,0.0,0.0,1.0,1.0,0.0,0.0,0.0,0.0,0.0,654,1.6328901650943533
hDJZh2TD9f-TVEVun75IJg,Hon Machi Sushi,Phoenix,33.319396999999995,-111.87496200000001,123,3.5,1.0,0.0,0.0,0.0,0.0,0.0,0.0,0.0,0.0,0.0,655,2.2411323215178567
VVKDTYqQX5Fftk5LZ9qgrQ,Brunswick Zone XL Gilbert,Phoenix,33.328685,-111.79225919999999,117,3.0,0.0,0.0,0.0,0.0,0.0,1.0,0.0,0.0,0.0,0.0,656,2.1765110044048495
RztX0zV7ObHZD08SDUhI0Q,Spinato's Pizzeria,Phoenix,33.640845,-112.0476105,339,4.5,1.0,0.0,0.0,0.0,0.0,0.0,0.0,0.0,0.0,0.0,657,2.5825609253678437
TH6mQqMfKATGjuW9SfoVSg,Los Favoritos,Phoenix,33.307426125300005,-111.87406575600001,140,3.5,1.0,0.0,0.0,0.0,0.0,0.0,0.0,0.0,0.0,0.0,658,2.0693882947154125
gHutuGMMMH-5Qv9DbemLFw,Scott's Generations Restaurant & Delicatessen,Phoenix,33.518431400000004,-112.0641262,218,3.5,1.0,0.0,0.0,0.0,0.0,0.0,0.0,0.0,0.0,0.0,659,2.3030442488608105
Zo899f0e93m_rCZyPbFV-A,Buffalo Exchange,Phoenix,33.5167245,-112.06338159999999,72,3.0,0.0,1.0,0.0,0.0,0.0,0.0,1.0,0.0,0.0,0.0,660,2.0139401110199335
tCkjFVOL2Crz44D8_FDozg,Iguana Mack's,Phoenix,33.326925,-111.858251,110,3.0,1.0,0.0,0.0,0.0,0.0,0.0,0.0,0.0,0.0,0.0,661,1.9133684473751496
8WKA2k3_tWMT1W1jYMOyqA,Costco,Phoenix,33.6711309766,-112.02816724799999,64,4.0,0.0,1.0,0.0,0.0,0.0,0.0,0.0,0.0,0.0,0.0,662,2.4921129700297193
TulmRC5V0--dnXYd_GOSvA,Golden Gate Chinese Restaurant,Phoenix,33.3785543,-111.89131499999999,148,4.0,1.0,0.0,0.0,0.0,0.0,0.0,0.0,0.0,0.0,0.0,663,2.4968120756414405
JN1hr0mtzva6eMU9qeAWsQ,The Street Boba Café,Phoenix,33.3944172,-111.8754243,219,4.5,0.0,0.0,0.0,0.0,0.0,0.0,0.0,1.0,0.0,0.0,664,2.6456143910965517
euL4wrPoczkOBkS93pxv5A,Macayo's Mexican Restaurants,Phoenix,33.3318825,-111.98043529999998,104,3.0,1.0,0.0,0.0,0.0,0.0,0.0,0.0,0.0,0.0,0.0,665,1.7023706894182713
7JR42RkKub9bsBSeXfAjew,China King Restaurant,Phoenix,33.321017,-111.86058500000001,172,3.5,1.0,0.0,0.0,0.0,0.0,0.0,0.0,0.0,0.0,0.0,666,2.4066509725825487
_FXa_6j-6UDsxWo-KX7WvQ,New Mexican Grill,Phoenix,33.2937677,-111.7736197,311,4.0,1.0,0.0,0.0,0.0,0.0,0.0,0.0,0.0,0.0,0.0,667,2.3746235473303994
